     3.03           OBSERVATION DATA    M: Mixed            RINEX VERSION / TYPE
Geo++ RINEX Logger  Geo++               20200615 081502 UTC PGM / RUN BY / DATE
************************************************************COMMENT
This file was generated by the Geo++ RINEX Logger App       COMMENT
for Android devices (Version 2.1.6). If you encounter       COMMENT
any issues, please send an email to android@geopp.de        COMMENT
Filtering Mode: MORE                                        COMMENT
************************************************************COMMENT
Geo++                                                       MARKER NAME
GEODETIC                                                    MARKER TYPE
Geo++               Geo++                                   OBSERVER / AGENCY
unknown             HUAWEI              VOG-AL00            REC # / TYPE / VERS
unknown             VOG-AL00                                ANT # / TYPE
 -2329612.9516  5393331.4547  2474866.9260                  APPROX POSITION XYZ
        0.0000        0.0000        0.0000                  ANTENNA: DELTA H/E/N
G    8 C1C L1C D1C S1C C5Q L5Q D5Q S5Q                      SYS / # / OBS TYPES
R    4 C1C L1C D1C S1C                                      SYS / # / OBS TYPES
E   12 C1B L1B D1B S1B C1C L1C D1C S1C C5Q L5Q D5Q S5Q      SYS / # / OBS TYPES
C    4 C2I L2I D2I S2I                                      SYS / # / OBS TYPES
J    8 C1C L1C D1C S1C C5Q L5Q D5Q S5Q                      SYS / # / OBS TYPES
  2020     6    15     8    15   20.0000044     GPS         TIME OF FIRST OBS
 24 R01  1 R02 -4 R03  5 R04  6 R05  1 R06 -4 R07  5 R08  6 GLONASS SLOT / FRQ #
    R09 -2 R10 -5 R11  0 R12 -1 R13 -2 R14 -7 R15  0 R16 -1 GLONASS SLOT / FRQ #
    R17  4 R18 -3 R19  3 R20  2 R21  4 R22 -3 R23  3 R24  2 GLONASS SLOT / FRQ #
G L1C                                                       SYS / PHASE SHIFT
G L5Q -0.25000                                              SYS / PHASE SHIFT
R L1C                                                       SYS / PHASE SHIFT
E L1B                                                       SYS / PHASE SHIFT
E L1C +0.50000                                              SYS / PHASE SHIFT
E L5Q -0.25000                                              SYS / PHASE SHIFT
C L2I                                                       SYS / PHASE SHIFT
J L1C                                                       SYS / PHASE SHIFT
J L5Q -0.25000                                              SYS / PHASE SHIFT
 C1C    0.000 C1P    0.000 C2C    0.000 C2P    0.000        GLONASS COD/PHS/BIS
                                                            END OF HEADER
> 2020  6 15  8 15 20.0000044  2  0
> 2020  6 15  8 15 20.0000044  0 30
C01  37486310.967   195201057.7431        171.221          36.000  
C02  37118343.905   193284956.4581        204.001          34.000  
C03  36037546.226   187656959.4441        171.743          38.000  
C04  38453778.403   200238915.1411        162.160          32.000  
C06  38561307.662   200798848.1691       1677.228          32.000  
C07  37554091.943   195554010.9241      -1290.333          34.000  
C08  37380859.270   194651942.6961        -12.283          34.000  
C09  40174858.724   209201031.3631       1339.288          28.000  
C10  36795132.560   191601910.5321      -1039.648          36.000  
C12  23545591.126   122608071.6251       2151.057          30.000  
C13  37309886.103   194282367.6451        -75.590          33.000  
C16  39287115.096   204578317.1311       1775.363          33.000  
C19  25284905.424   131665136.8461      -2710.926          34.000  
C21  22817514.863   118816786.7571       2425.629          40.000  
C22  22139028.170   115283728.5191       -534.012          42.000  
C26  26001855.790   135398486.3411      -1649.841          32.000  
C35  23507604.724   122410265.7861       -756.256          39.000  
E04                                                                                                                                  24501130.420    96147698.0951        623.964          28.000  
E09                                                                                                                                  23721080.038    93086612.5661       2120.916          25.000  
G02  22541823.021   118458078.9071        790.173          31.000  
G04  24984014.826   131291883.5811      -1412.248          33.000  
G05  21670628.236   113879919.3731       2521.071          41.000  
G06  21728406.937   114183548.5871       -374.539          40.000    21728409.635    85266945.5241       -279.902          29.000  
G09  22911546.566   120400988.9941         36.782          37.000    22911550.164    89909842.9771         25.717          24.000  
G17  21392097.059   112416228.5901       -891.865          40.000  
G19  20619440.758   108355891.7941       -241.473          41.000  
G28  23636198.600   124209061.3981      -3209.736          32.000  
J01  38033870.799   199869339.3031       -520.615          40.000    38033874.397   149253092.0741       -389.780          28.000  
J02  36890694.703   193861908.2651       -447.109          34.000    36890701.899   144767037.2821       -332.024          22.000  
J03  37973323.515   199551160.9931       1272.798          42.000    37973327.412   149015492.4941        950.349          29.000  
> 2020  6 15  8 15 21.0000046  0 32
C01  37486339.447   195201198.582         171.237          36.000  
C02  37118364.291   193285064.249         204.680          33.000  
C03  36037572.907   187657099.628         172.222          38.000  
C04  38453806.284   200239065.074         162.197          31.000  
C06  38561045.644   200797482.876        1678.000          33.000  
C07  37554400.130   195555613.140       -1289.819          35.000  
C08  37380921.626   194652266.918         -11.981          36.000  
C09  40174662.060   209200004.811        1338.861          29.000  
C10  36795391.580   191603262.439       -1040.003          37.000  
C12  23545237.371   122606231.587        2153.697          30.000  
C13  37309961.351   194282755.574         -75.701          34.000  
C16  39286834.790   204576853.789        1776.090          34.000  
C19  25285486.422   131668160.073       -2711.058          34.000  
C21  22817106.846   118814673.308        2424.838          41.000  
C22  22139190.058   115284574.973        -534.919          44.000  
C26  26002233.229   135400448.643       -1650.115          33.000  
C35  23507809.182   122411334.511        -757.192          40.000  
E04                                                                                                                                  24501033.288    96147309.604         624.677          28.000  
E09                                                                                                                                  23720600.970    93084727.314        2121.493          26.000  
G02  22541732.483   118457603.478         790.554          31.000  
G04  24984342.200   131293611.083       -1412.892          33.000  
G05  21670207.328   113877713.588        2520.869          40.000  
G06  21728537.347   114184238.327        -374.831          39.000    21728543.342    85267460.785        -279.988          30.000  
G09  22911600.829   120401268.284          35.096          37.000    22911603.527    89910051.615          28.287          26.000  
G17  21392327.900   112417435.645        -892.565          40.000  
G19  20619547.784   108356448.443        -241.611          41.000  
G28  23636869.536   124212585.747       -3209.100          32.000  
J01  38034031.188   199870174.916        -520.813          40.000    38034034.786   149253717.416        -388.883          30.000  
J02  36890838.904   193862670.423        -447.263          33.000    36890847.298   144767605.244        -333.814          23.000  
J03  37973139.443   199550202.878        1273.240          41.000    37973146.638   149014776.463         952.979          30.000  
R11  22734325.154   121485340.5161      -2259.760          25.000  
R21  20880774.641   111737242.6561       1229.301          29.000  
> 2020  6 15  8 15 22.0000046  0 31
C01  37486306.470   195201024.677         173.548          34.000  
C02  37118324.719   193284859.308         205.131          32.000  
C03  36037535.433   187656926.701         173.341          37.000  
C06  38560723.666   200795805.189        1677.906          31.000  
C07  37554647.459   195556902.994       -1290.254          34.000  
C08  37380923.425   194652278.652         -11.570          34.000  
C09  40174405.138   209198666.520        1337.468          28.000  
C10  36795590.343   191604302.523       -1040.170          36.000  
C12  23544823.358   122604078.163        2152.746          27.000  
C13  37309976.041   194282831.303         -75.746          33.000  
C16  39286493.327   204575077.557        1776.178          32.000  
C19  25286006.862   131670871.260       -2710.995          33.000  
C21  22816640.369   118812248.145        2424.944          40.000  
C22  22139290.788   115285109.759        -534.786          42.000  
C26  26002551.608   135402098.714       -1649.998          32.000  
C35  23507951.284   122412090.784        -756.812          39.000  
E04                                                                                                                                  24500877.396    96146685.196         624.038          25.000  
E09                                                                                                                                  23720063.142    93082605.615        2119.956          23.000  
G02  22541582.587   118456812.394         791.172          30.000  
G04  24984610.814   131295024.033       -1413.714          32.000  
G05  21669727.060   113875193.386        2520.067          40.000  
G06  21728608.397   114184612.834        -374.948          39.000    21728618.291    85267740.159        -279.465          25.000  
G09  22911595.433   120401232.918          35.698          36.000    22911599.630    89910022.963          27.789          21.000  
G12  22808800.196   119861053.4471       1764.016          31.000  
G17  21392497.882   112418328.156        -891.911          40.000  
G19  20619594.252   108356690.346        -241.962          40.000  
G28  23637482.611   124215794.685       -3209.404          31.000  
J01  38034129.820   199870695.345        -520.218          39.000    38034137.614   149254106.272        -389.045          25.000  
J02  36890923.745   193863117.642        -447.329          32.000    36890935.737   144767936.495        -331.977          19.000  
J03  37972897.210   199548930.040        1272.707          40.000    37972907.403   149013824.215         951.310          26.000  
R21  20880545.299   111736014.724        1231.254          30.000  
> 2020  6 15  8 15 23.0000049  0 33
C01  37486362.831   195201319.571         173.073          34.000  
C02  37118374.484   193285122.243         205.353          30.000  
C03  36037592.394   187657222.071         173.031          36.000  
C06  38560491.327   200794595.121        1678.654          30.000  
C07  37554984.725   195558661.970       -1290.869          34.000  
C08  37381015.461   194652758.909         -12.217          34.000  
C09  40174238.154   209197797.187        1337.454          27.000  
C10  36795879.343   191605811.104       -1040.438          35.000  
C12  23544499.582   122602394.569        2151.065          28.000  
C13  37310080.968   194283375.371         -75.559          32.000  
C16  39286241.501   204573770.146        1775.266          32.000  
C19  25286616.640   131674050.593       -2711.427          32.000  
C21  22816264.729   118810292.036        2423.640          39.000  
C22  22139482.355   115286113.008        -535.700          41.000  
C26  26002958.426   135404216.497       -1649.415          31.000  
C34  25780194.043   134244235.3761       2518.760          22.000  
C35  23508187.221   122413316.761        -757.988          38.000  
E04                                                                                                                                  24500809.942    96146415.389         622.200          25.000  
E09                                                                                                                                  23719614.353    93080839.240        2119.763          22.000  
G02  22541521.429   118456493.737         791.225          30.000  
G04  24984968.166   131296910.401       -1413.861          31.000  
G05  21669338.229   113873145.370        2520.101          39.000  
G06  21728770.585   114185460.085        -374.901          38.000    21728781.378    85268372.223        -278.800          26.000  
G09  22911678.775   120401671.195          33.627          36.000    22911684.471    89910347.833          25.798          22.000  
G12  22808554.966   119859761.888        1764.393          30.000  
G17  21392755.703   112419693.141        -893.271          39.000  
G19  20619729.758   108357405.399        -242.740          39.000  
G28  23638183.526   124219476.808       -3209.905          30.000  
J01  38034320.188   199871688.229        -520.498          38.000    38034327.983   149254848.671        -390.526          25.000  
J02  36891098.824   193864037.589        -447.877          31.000    36891112.314   144768623.159        -336.218          18.000  
J03  37972744.616   199548129.597        1272.646          39.000    37972755.708   149013226.248         947.646          26.000  
R11  22735246.716   121490265.0751      -2265.713          19.000  
R21  20880405.896   111735269.709        1231.097          31.000  
> 2020  6 15  8 15 24.0000049  0 31
C01  37486329.254   195201146.622         172.393          34.000  
C02  37118335.211   193284916.421         206.180          31.000  
C03  36037560.616   187657048.589         173.896          36.000  
C06  38560169.050   200792916.959        1677.191          31.000  
C07  37555232.653   195559952.272       -1289.551          33.000  
C08  37381018.759   194652770.934         -11.585          33.000  
C09  40173981.831   209196458.473        1340.275          27.000  
C10  36796079.005   191606851.167       -1040.206          35.000  
C12  23544088.267   122600242.952        2152.095          28.000  
C13  37310095.958   194283450.437         -74.660          31.000  
C16  39285900.637   204571994.693        1775.525          31.000  
C19  25287138.278   131676761.842       -2711.181          32.000  
C21  22815799.451   118807867.619        2425.510          39.000  
C22  22139586.983   115286648.355        -535.133          41.000  
C26  26003275.307   135405865.264       -1648.670          31.000  
C34  25779720.971   134241717.014        2518.920          23.000  
C35  23508332.320   122414073.592        -756.850          37.000  
E04                                                                                                                                  24500648.654    96145792.043         621.879          24.000  
G02  22541370.634   118455702.715         791.538          27.000  
G04  24985236.781   131298324.205       -1413.753          30.000  
G05  21668857.062   113870625.080        2519.848          37.000  
G06  21728841.936   114185834.534        -374.125          38.000    21728849.730    85268651.593        -280.088          25.000  
G09  22911671.580   120401637.273          34.296          35.000    22911675.777    89910323.832          23.471          19.000  
G12  22808218.899   119857997.396        1764.811          27.000  
G17  21392925.086   112420586.342        -893.171          38.000  
G19  20619771.129   108357647.627        -243.147          38.000  
G28  23638792.704   124222686.731       -3209.737          28.000  
J01  38034414.623   199872208.704        -519.749          38.000    38034424.816   149255239.762        -389.436          24.000  
J02  36891183.065   193864484.902        -446.878          31.000    36891194.158   144768956.086        -332.490          18.000  
J03  37972501.484   199546856.571        1274.066          38.000    37972511.078   149012278.144         948.354          24.000  
R21  20880176.555   111734042.172        1229.801          31.000  
> 2020  6 15  8 15 25.0000051  0 28
C01  37486355.636   195201286.655         171.653          32.000  
C02  37118355.597   193285022.326         206.440          30.000  
C03  36037587.297   187657186.869         173.896          34.000  
C06  38559906.432   200791552.342        1676.638          29.000  
C07  37555540.240   195561554.093       -1289.699          32.000  
C08  37381080.516   194653094.286         -10.786          32.000  
C09  40173784.867   209195431.211        1339.437          24.000  
C10  36796338.025   191608202.956       -1039.000          34.000  
C12  23543733.313   122598403.522        2151.482          25.000  
C13  37310170.007   194283836.149         -73.821          31.000  
C16  39285618.832   204570531.067        1775.913          30.000  
C19  25287718.077   131679785.686       -2711.628          30.000  
C21  22815393.832   118805754.522        2424.784          38.000  
C22  22139749.770   115287496.049        -536.059          40.000  
C26  26003651.846   135407826.418       -1649.186          29.000  
C35  23508536.179   122415143.123        -757.123          36.000  
E04                                                                                                                                  24500546.724    96145405.691         620.997          30.000  
G02  22541280.396   118455226.204         791.701          28.000  
G04  24985564.154   131300052.226       -1412.947          30.000  
G05  21668437.953   113868418.443        2521.183          37.000  
G06  21728972.945   114186523.734        -374.211          37.000    21728977.742    85269166.773        -280.305          31.000  
G09  22911723.744   120401917.480          34.511          35.000  
G19  20619877.256   108358204.909        -242.230          38.000  
G28  23639465.439   124226211.051       -3208.632          28.000  
J01  38034573.213   199873043.175        -519.711          37.000    38034579.808   149255863.873        -389.816          30.000  
J02  36891327.565   193865246.649        -446.173          30.000  
J03  37972319.810   199545897.334        1274.212          38.000    37972325.506   149011563.983         950.791          31.000  
R21  20880005.673   111733127.110        1229.741          35.000  
> 2020  6 15  8 15 26.0000051  0 32
C01  37486323.258   195201114.964         171.515          34.000  
C02  37118316.025   193284816.019         206.117          29.000  
C03  36037554.020   187657012.980         173.775          36.000  
C06  38559583.556   200789875.103        1677.641          29.000  
C07  37555787.569   195562843.949       -1289.476          32.000  
C08  37381082.615   194653105.174         -10.755          33.000  
C09  40173527.945   209194091.776        1339.707          26.000  
C10  36796537.387   191609241.688       -1038.115          34.000  
C12  23543319.899   122596252.142        2150.971          28.000  
C13  37310185.596   194283909.638         -73.547          31.000  
C16  39285278.867   204568755.494        1775.787          31.000  
C19  25288240.016   131682497.577       -2712.159          32.000  
C21  22814928.254   118803330.168        2425.503          38.000  
C22  22139852.899   115288032.024        -534.488          40.000  
C26  26003967.828   135409475.168       -1648.297          30.000  
C34  25778821.593   134236989.3631       2519.446          23.000  
C35  23508680.679   122415900.276        -755.844          36.000  
E04                                                                                                                                  24500386.335    96144784.622         621.549          29.000  
G02  22541129.001   118454435.018         791.058          27.000  
G04  24985831.869   131301465.073       -1412.883          29.000  
G05  21667956.486   113865898.212        2520.185          36.000  
G06  21729041.598   114186897.552        -371.731          36.000    21729046.394    85269446.385        -279.147          29.000  
G09  22911716.848   120401883.484          34.181          33.000  
G12  22807607.022   119854785.3501       1763.448          26.000  
G17  21393322.911   112422687.4601       -892.838          35.000  
G19  20619921.925   108358447.907        -242.490          35.000  
G28  23640076.416   124229420.002       -3208.328          27.000  
J01  38034670.346   199873563.105        -519.378          35.000    38034676.341   149256252.551        -387.935          28.000  
J02  36891412.107   193865692.552        -446.372          29.000  
J03  37972077.278   199544623.135        1275.348          35.000    37972080.875   149010613.033         950.918          29.000  
R11  22736594.583   121497467.7181      -2259.842          21.000  
R21  20879773.633   111731886.187        1230.581          31.000  
> 2020  6 15  8 15 27.0000051  0 31
C01  37486290.581   195200943.197         171.852          33.000  
C02  37118275.553   193284609.766         206.191          31.000  
C03  36037519.844   187656838.896         174.391          35.000  
C04  38453768.810   200238869.0751        163.243          30.000  
C06  38559261.279   200788196.257        1679.332          30.000  
C07  37556033.999   195564132.054       -1287.254          32.000  
C08  37381085.013   194653114.775          -8.380          32.000  
C09  40173269.524   209192750.901        1343.631          25.000  
C10  36796736.449   191610279.564       -1037.483          34.000  
C12  23542908.284   122594099.790        2154.076          27.000  
C13  37310198.787   194283981.791         -71.158          30.000  
C16  39284937.404   204566978.271        1778.191          31.000  
C19  25288759.856   131685208.661       -2710.228          32.000  
C21  22814464.175   118800903.659        2427.652          38.000  
C22  22139955.428   115288565.371        -533.835          40.000  
C26  26004284.109   135411122.284       -1645.162          30.000  
C35  23508829.376   122416654.842        -753.749          36.000  
E04                                                                                                                                  24500224.747    96144161.039         624.129          34.000  
G02  22540977.306   118453642.593         793.408          27.000  
G04  24986100.183   131302878.433       -1413.152          29.000  
G05  21667476.818   113863375.452        2522.751          36.000  
G06  21729109.351   114187267.997        -370.702          36.000    21729114.747    85269724.721        -277.158          36.000  
G09  22911709.653   120401848.821          35.587          34.000  
G12  22807272.454   119853022.191        1763.592          28.000  
G17  21393491.694   112423578.652        -890.607          36.000  
G19  20619964.795   108358688.184        -239.803          37.000  
G28  23640685.894   124232627.506       -3206.373          29.000  
J01  38034766.879   199874080.017        -516.322          36.000    38034772.275   149256639.209        -385.605          35.000  
J02  36891494.250   193866137.114        -443.891          30.000  
J03  37971835.345   199543348.369        1275.979          37.000    37971835.945   149009660.487         953.464          36.000  
R21  20879542.494   111730649.465        1232.270          32.000  
> 2020  6 15  8 15 28.0000051  0 27
C03  36037486.867   187656665.139         173.554          34.000  
C06  38558937.803   200786515.800        1680.199          31.000  
C07  37556279.229   195565419.098       -1287.476          33.000  
C08  37381086.512   194653123.003          -8.921          34.000  
C09  40173010.504   209191406.075        1344.176          26.000  
C10  36796935.212   191611317.417       -1038.733          35.000  
C12  23542495.170   122591946.861        2150.645          27.000  
C13  37310212.278   194284053.452         -73.028          31.000  
C16  39284594.141   204565199.666        1776.970          31.000  
C19  25289280.296   131687918.647       -2711.114          32.000  
C21  22813998.897   118798478.131        2424.108          40.000  
C22  22140055.259   115289100.495        -536.464          41.000  
C26  26004597.991   135412768.072       -1646.809          31.000  
C35  23508972.977   122417410.469        -756.807          38.000  
E04                                                                                                                                  24500064.358    96143537.707         621.743          38.000  
G04  24986367.897   131304292.122       -1414.420          28.000  
G05  21666997.150   113860853.964        2520.000          34.000  
G06  21729178.303   114187639.996        -374.149          34.000    21729184.299    85270002.246        -278.682          39.000  
G09  22911701.859   120401813.703          33.912          31.000  
G12  22806937.586   119851259.709        1759.747          26.000  
G17  21393660.477   112424470.520        -893.654          34.000  
G28  23641293.573   124235834.346       -3207.647          26.000  
J01  38034863.412   199874597.441        -519.493          34.000    38034869.108   149257025.150        -387.274          38.000  
J02  36891576.393   193866581.043        -443.031          28.000  
J03  37971591.914   199542072.578        1274.555          35.000    37971591.614   149008707.206         951.914          39.000  
R11  22737443.895   121502006.0571      -2248.785          21.000  
R21  20879311.653   111729413.525        1230.550          33.000  
> 2020  6 15  8 15 29.0000054  0 25
C06  38558704.264   200785304.230        1678.989          24.000  
C07  37556616.196   195567176.400       -1290.415          28.000  
C08  37381177.949   194653600.211          -9.214          27.000  
C10  36797224.512   191612825.410       -1040.900          29.000  
C12  23542173.492   122590264.231        2150.161          21.000  
C13  37310316.305   194284595.290         -74.477          26.000  
C16  39284342.616   204563891.474        1775.776          26.000  
C19  25289892.172   131691099.384       -2713.901          25.000  
C21  22813623.557   118796523.546        2421.963          33.000  
C22  22140248.625   115290106.197        -538.089          34.000  
C26  26005002.411   135414883.445       -1647.825          26.000  
C35  23509207.115   122418636.809        -759.222          31.000  
E04                                                                                                                                  24499996.305    96143269.925         619.776          39.000  
G02  22540761.755   118452528.3551        792.695          24.000  
G04  24986725.550   131306179.839       -1417.040          27.000  
G05  21666608.619   113858808.444        2516.797          35.000  
G06  21729339.591   114188487.664        -375.736          34.000    21729346.187    85270634.628        -280.086          41.000  
G09  22911784.602   120402253.739          31.458          31.000  
G17  21393919.498   112425838.101        -896.224          34.000  
G19  20620144.671   108359646.7291       -246.157          35.000  
G28  23641994.188   124239514.979       -3208.884          25.000  
J01  38035051.382   199875590.621        -521.491          34.000    38035058.277   149257766.367        -388.639          39.000  
J02  36891747.874   193867498.161        -445.656          28.000  
J03  37971439.919   199541271.374        1273.070          35.000    37971439.919   149008108.965         950.596          40.000  
R21  20879170.751   111728660.070        1228.366          30.000  
> 2020  6 15  8 15 30.0000054  0 25
C06  38558381.688   200783626.333        1674.693          25.000  
C07  37556862.025   195568467.129       -1292.096          28.000  
C08  37381178.848   194653610.562         -10.995          27.000  
C09  40172581.800   209189188.5441       1342.485          22.000  
C10  36797423.274   191613867.232       -1042.083          29.000  
C12  23541765.775   122588114.783        2147.496          21.000  
C13  37310328.597   194284670.021         -74.930          25.000  
C16  39283999.653   204562116.107        1775.393          26.000  
C19  25290411.712   131693813.648       -2715.561          26.000  
C21  22813156.480   118794102.161        2421.119          33.000  
C22  22140350.854   115290644.996        -539.264          34.000  
C26  26005315.994   135416530.721       -1647.045          26.000  
C35  23509350.116   122419395.949        -759.226          31.000  
E04                                                                                                                                  24499839.814    96142649.934         619.691          40.000  
G02  22540611.859   118451736.057         792.799          26.000  
G04  24986993.864   131307597.491       -1418.244          30.000  
G05  21666129.251   113856292.614        2515.331          37.000  
G06  21729410.342   114188863.892        -376.419          37.000    21729418.736    85270914.971        -280.234          41.000  
G09  22911777.706   120402222.844          29.977          34.000  
G17  21394088.581   112426735.063        -897.329          38.000  
G28  23642602.767   124242724.363       -3210.249          29.000  
J01  38035150.313   199876112.774        -522.647          38.000    38035159.007   149258155.457        -389.936          40.000  
J02  36891832.116   193867944.302        -447.333          31.000  
J03  37971198.586   199539998.672        1272.561          38.000    37971198.586   149007158.640         950.704          42.000  
R21  20878941.709   111727433.907        1227.910          30.000  
> 2020  6 15  8 15 31.0000056  0 26
C01  37486305.870   195201031.7551        164.449          27.000  
C03  36037535.733   187656925.6961        172.846          28.000  
C06  38558118.170   200782264.278        1674.054          24.000  
C07  37557169.013   195570071.390       -1292.234          28.000  
C08  37381238.807   194653933.121         -10.116          28.000  
C09  40172383.638   209188158.813        1340.662          21.000  
C10  36797682.594   191615221.832       -1042.339          29.000  
C12  23541419.814   122586280.099        2147.828          19.000  
C13  37310401.147   194285057.397         -75.076          26.000  
C16  39283716.649   204560652.579        1775.942          25.000  
C19  25290990.911   131696841.519       -2715.504          27.000  
C21  22812748.163   118791993.670        2420.530          32.000  
C22  22140513.042   115291496.848        -540.161          34.000  
C26  26005691.035   135418489.711       -1646.908          26.000  
C34  25776558.160   134225155.8121       2520.803          18.000  
C35  23509553.675   122420468.043        -760.180          31.000  
G02  22540523.420   118451258.588         792.289          27.000  
G04  24987322.736   131309331.233       -1419.048          30.000  
G05  21665710.141   113854092.474        2514.936          38.000  
G06  21729541.052   114189555.499        -376.496          38.000    21729550.645    85271430.753        -280.956          41.000  
G09  22911831.069   120402508.360          29.167          35.000  
G17  21394317.922   112427948.081        -898.172          38.000  
G28  23643272.803   124246250.142       -3210.717          29.000  
J02  36891977.515   193868707.113        -448.301          31.000  
J03  37971017.212   199539041.153        1272.654          39.000    37971016.612   149006443.319         950.723          41.000  
R21  20878773.226   111726532.565        1227.949          35.000  
> 2020  6 15  8 15 32.0000056  0 26
C01  37486274.392   195200867.487         164.421          34.000  
C02  37118225.487   193284346.6721        205.069          31.000  
C03  36037502.456   187656753.006         172.516          37.000  
C06  38557795.594   200780589.284        1675.653          31.000  
C07  37557417.241   195571363.586       -1291.699          33.000  
C08  37381241.505   194653943.675         -10.635          33.000  
C09  40172126.715   209186818.909        1339.203          28.000  
C10  36797883.156   191616263.786       -1041.862          34.000  
C13  37310415.237   194285132.406         -75.101          31.000  
C16  39283376.085   204558876.766        1775.448          31.000  
C19  25291512.250   131699556.919       -2715.142          32.000  
C21  22812283.185   118789573.190        2420.482          38.000  
C22  22140616.170   115292037.225        -540.637          40.000  
C26  26006007.316   135420137.196       -1647.769          32.000  
C34  25776073.995   134222636.525        2518.890          24.000  
C35  23509698.774   122421228.321        -760.696          36.000  
G02  22540374.423   118450466.800         791.060          29.000  
G05  21665232.272   113851577.219        2515.342          40.000  
G06  21729616.599   114189930.874        -374.879          40.000    21729621.996    85271711.179        -280.410          41.000  
G17  21394494.799   112428845.239        -897.222          40.000  
G19  20620352.727   108360703.1891       -246.767          41.000  
G28  23643883.780   124249460.665       -3210.625          31.000  
J01  38035414.431   199877471.5871       -520.912          40.000  
J03  37970771.982   199537767.920        1273.423          41.000    37970774.380   149005492.529         950.467          41.000  
R11  22739325.992   121512062.9561      -2264.153          17.000  
R21  20878543.885   111725305.317        1228.358          37.000  
> 2020  6 15  8 15 33.0000059  0 24
C01  37486332.552   195201170.917         165.439          34.000  
C03  36037559.717   187657049.155         171.676          37.000  
C06  38557562.355   200779381.506        1676.777          31.000  
C07  37557755.107   195573123.262       -1290.660          34.000  
C08  37381334.141   194654422.950         -11.309          33.000  
C09  40171960.331   209185948.275        1338.638          27.000  
C10  36798173.055   191617773.777       -1041.360          36.000  
C12  23540679.627   122582448.2551       2151.180          27.000  
C13  37310518.965   194285676.166         -74.963          32.000  
C16  39283126.058   204557569.858        1775.016          32.000  
C19  25292123.527   131702739.871       -2714.208          33.000  
C21  22811909.344   118787621.090        2420.437          40.000  
C22  22140812.534   115293046.248        -540.874          41.000  
C26  26006413.834   135422253.482       -1647.667          32.000  
C35  23509934.111   122422457.076        -760.554          37.000  
G05  21664844.640   113849534.259        2515.246          40.000  
G06  21729779.986   114190778.634        -375.114          40.000    21729782.984    85272344.034        -280.115          41.000  
G12  22805509.075   119843733.8381       1757.692          27.000  
G17  21394756.518   112430215.298        -897.826          40.000  
G19  20620490.032   108361422.922        -247.522          40.000  
G28  23644584.095   124253143.669       -3210.308          31.000  
J01  38035604.799   199878465.026        -521.632          40.000  
J03  37970619.687   199536967.222        1273.373          41.000    37970621.486   149004894.691         950.752          41.000  
R21  20878404.481   111724559.255        1228.300          36.000  
> 2020  6 15  8 15 34.0000059  0 29
C01  37486301.074   195201004.917         166.355          34.000  
C03  36037527.339   187656877.330         171.788          36.000  
C06  38557239.179   200777704.586        1676.810          31.000  
C07  37558003.036   195574414.410       -1291.537          34.000  
C08  37381336.239   194654434.065         -11.109          33.000  
C09  40171704.608   209184608.922        1339.409          27.000  
C10  36798374.216   191618815.289       -1042.240          35.000  
C12  23540268.311   122580296.495        2151.828          27.000  
C13  37310532.756   194285751.161         -75.096          32.000  
C16  39282785.194   204555794.141        1775.461          31.000  
C19  25292644.567   131705453.900       -2714.304          32.000  
C21  22811446.164   118785200.610        2420.079          39.000  
C22  22140918.661   115293587.153        -541.522          41.000  
C26  26006731.315   135423900.563       -1646.704          31.000  
C34  25775196.803   134218067.3831       2518.158          23.000  
C35  23510082.808   122423217.279        -759.895          37.000  
G02  22540166.368   118449358.3911        789.997          27.000  
G05  21664365.872   113847019.033        2515.304          41.000  
G06  21729851.637   114191154.185        -375.878          40.000    21729854.635    85272624.332        -280.597          41.000  
G09  22911907.816   120402895.7921         27.847          38.000  
G12  22805173.907   119841976.232        1757.280          28.000  
G17  21394928.000   112431113.320        -899.044          41.000  
G19  20620538.598   108361670.580        -247.996          41.000  
G28  23645195.072   124256353.601       -3209.899          31.000  
J01  38035704.929   199878986.686        -521.550          40.000  
J02  36892327.073   193870524.9241       -448.315          33.000  
J03  37970378.054   199535693.978        1273.087          41.000    37970379.253   149003943.770         950.365          41.000  
R11  22740281.131   121517166.9921      -2265.583          21.000  
R21  20878168.844   111723298.451        1228.413          36.000  
> 2020  6 15  8 15 35.0000061  0 27
C01  37486327.456   195201150.048         167.694          34.000  
C03  36037555.220   187657017.626         172.387          36.000  
C06  38556976.860   200776340.014        1677.033          31.000  
C07  37558311.822   195576018.170       -1291.703          34.000  
C08  37381397.997   194654757.165         -10.779          33.000  
C09  40171507.344   209183582.554        1337.561          26.000  
C10  36798635.335   191620169.378       -1042.183          36.000  
C12  23539914.556   122578457.616        2150.652          27.000  
C13  37310606.205   194286137.774         -74.018          32.000  
C16  39282504.588   204554330.927        1774.687          31.000  
C19  25293225.564   131708480.323       -2714.055          33.000  
C21  22811042.044   118783092.911        2419.702          40.000  
C22  22141082.348   115294440.737        -542.079          41.000  
C26  26007107.854   135425859.217       -1646.254          32.000  
C35  23510290.565   122424290.002        -759.862          37.000  
G02  22540077.329   118448883.270         790.333          28.000  
G05  21663948.560   113844819.584        2514.475          41.000  
G06  21729985.044   114191844.523        -375.293          40.000    21729985.644    85273140.029        -280.313          41.000  
G09  22911969.574   120403182.534          27.800          38.000  
G17  21395158.840   112432326.948        -898.748          41.000  
G19  20620646.523   108362233.996        -248.650          42.000  
G28  23645866.307   124259878.439       -3209.673          32.000  
J01  38035864.719   199879822.549        -521.023          41.000  
J02  36892473.072   193871287.709        -447.171          34.000  
J03  37970196.080   199534736.096        1273.208          42.000    37970196.680   149003228.184         951.022          41.000  
R11  22740770.692   121519782.794       -2264.916          22.000  
R21  20877997.363   111722380.469        1228.009          36.000  
> 2020  6 15  8 15 36.0000061  0 29
C01  37486294.478   195200981.708         168.634          34.000  
C03  36037519.844   187656845.139         172.909          36.000  
C06  38556654.583   200774663.386        1676.552          30.000  
C07  37558560.949   195577310.019       -1291.948          34.000  
C08  37381400.695   194654768.051         -11.045          33.000  
C09  40171250.722   209182243.862        1339.274          27.000  
C10  36798835.596   191621211.410       -1041.923          34.000  
C12  23539502.941   122576306.634        2150.231          26.000  
C13  37310619.695   194286211.430         -73.364          32.000  
C16  39282164.324   204552556.061        1774.389          30.000  
C19  25293746.903   131711194.208       -2714.441          32.000  
C21  22810577.366   118780673.165        2419.715          39.000  
C22  22141186.076   115294982.720        -542.700          41.000  
C26  26007424.435   135427505.586       -1646.976          32.000  
C34  25774295.926   134213342.9491       2519.294          23.000  
C35  23510438.362   122425050.631        -761.460          36.000  
G04  24988825.296   131317213.6771      -1419.554          33.000  
G05  21663470.991   113842305.277        2513.641          41.000  
G06  21730056.395   114192219.740        -374.835          41.000    21730057.294    85273420.199        -280.565          41.000  
G09  22911963.877   120403155.087          26.868          38.000  
G12  22804564.129   119838777.8511       1755.958          29.000  
G17  21395329.721   112433226.074        -899.487          41.000  
G19  20620692.092   108362482.919        -249.784          42.000  
G28  23646475.785   124263088.017       -3209.668          31.000  
J01  38035964.550   199880344.310        -522.580          41.000  
J02  36892559.712   193871734.829        -447.007          33.000  
J03  37969955.047   199533463.125        1272.798          42.000    37969954.448   149002276.965         951.370          41.000  
R11  22741199.395   121522074.035       -2265.302          24.000  
R21  20877773.418   111721182.191        1227.804          36.000  
> 2020  6 15  8 15 37.0000064  0 28
C01  37486350.839   195201280.666         169.663          34.000  
C03  36037578.004   187657140.981         172.328          36.000  
C06  38556422.544   200773455.168        1676.673          31.000  
C07  37558899.115   195579070.308       -1291.363          34.000  
C08  37381493.930   194655246.852         -10.021          33.000  
C09  40171085.236   209181372.259        1340.543          27.000  
C10  36799126.095   191622721.341       -1041.803          35.000  
C13  37310723.424   194286753.430         -74.346          32.000  
C16  39281914.297   204551249.996        1775.145          31.000  
C19  25294357.581   131714376.880       -2714.591          33.000  
C21  22810203.525   118778722.349        2418.819          40.000  
C22  22141380.341   115295993.865        -543.305          41.000  
C26  26007830.354   135429621.165       -1647.075          32.000  
C34  25773901.699   134211291.344        2520.327          21.000  
C35  23510676.098   122426279.703        -761.006          37.000  
G02  22539870.772   118447774.3411        790.945          27.000  
G04  24989185.647   131319106.068       -1419.769          33.000  
G05  21663081.561   113840264.523        2513.578          40.000  
G06  21730216.484   114193067.599        -375.476          41.000    21730218.583    85274053.536        -280.296          41.000  
G09  22912045.721   120403601.145          25.676          38.000    22912043.322    89911794.2971         19.864          37.000  
G17  21395589.342   112434598.039        -899.652          41.000  
G19  20620829.697   108363204.820        -249.232          41.000  
G28  23647175.501   124266770.440       -3210.100          31.000  
J01  38036152.520   199881338.370        -521.348          40.000    38036153.119   149262056.8501       -389.565          40.000  
J02  36892734.192   193872654.473        -447.059          33.000    36892741.986   144775057.5821       -334.424          35.000  
J03  37969801.853   199532662.685        1273.003          42.000    37969802.153   149001679.127         950.618          41.000  
R11  22741720.135   121524856.904       -2265.356          24.000  
R21  20877625.621   111720391.586        1226.372          35.000  
> 2020  6 15  8 15 38.0000064  0 29
C01  37486317.263   195201110.299         170.760          33.000  
C02  37118237.479   193284397.6611        201.285          31.000  
C03  36037545.327   187656967.914         173.577          36.000  
C06  38556100.867   200771778.264        1676.857          30.000  
C07  37559147.343   195580361.626       -1290.763          34.000  
C08  37381496.329   194655256.582          -9.352          33.000  
C09  40170827.715   209180031.122        1340.783          26.000  
C10  36799326.656   191623762.860       -1041.421          35.000  
C12  23538771.747   122572472.2631       2151.766          26.000  
C13  37310737.814   194286827.779         -74.298          32.000  
C16  39281572.833   204549474.014        1776.619          30.000  
C19  25294879.220   131717091.404       -2714.572          32.000  
C21  22809739.746   118776303.866        2418.537          40.000  
C22  22141485.569   115296536.999        -543.468          41.000  
C26  26008147.534   135431267.638       -1646.532          32.000  
C34  25773420.232   134208772.004        2520.182          22.000  
C35  23510821.797   122427041.024        -761.392          37.000  
G02  22539721.176   118446983.313         791.000          26.000  
G04  24989457.259   131320526.334       -1420.236          31.000  
G05  21662603.991   113837751.055        2513.456          41.000  
G06  21730288.135   114193443.037        -375.711          40.000    21730289.933    85274333.725        -280.154          41.000  
G09  22912041.824   120403575.028          25.448          37.000    22912037.926    89911774.983          17.916          37.000  
G17  21395760.223   112435497.827        -900.265          40.000  
G19  20620877.064   108363454.594        -249.968          41.000  
G28  23647786.178   124269980.506       -3210.182          30.000  
J01  38036252.051   199881859.704        -521.492          40.000    38036252.051   149262445.866        -389.090          40.000  
J02  36892820.532   193873101.458        -447.442          33.000    36892827.427   144775392.046        -333.852          35.000  
J03  37969559.021   199531389.419        1273.449          41.000    37969559.921   149000728.795         950.104          41.000  
R21  20877395.380   111719159.606        1227.054          35.000  
> 2020  6 15  8 15 39.0000067  0 30
C01  37486374.223   195201407.469         171.512          33.000  
C03  36037601.687   187657263.329         172.997          35.000  
C04  38453874.936   200239435.1661        164.350          30.000  
C06  38555868.528   200770569.661        1676.731          31.000  
C07  37559486.708   195582121.030       -1291.752          34.000  
C08  37381588.665   194655733.973          -9.032          33.000  
C09  40170659.231   209179158.772        1340.619          27.000  
C10  36799617.455   191625272.607       -1041.587          35.000  
C12  23538450.670   122570788.690        2151.562          26.000  
C13  37310841.542   194287369.696         -73.552          32.000  
C16  39281321.307   204548165.747        1776.275          30.000  
C19  25295490.197   131720274.386       -2715.158          33.000  
C21  22809365.005   118774353.714        2418.544          40.000  
C22  22141680.134   115297548.789        -543.504          41.000  
C26  26008553.753   135433382.236       -1646.149          33.000  
C35  23511059.532   122428271.178        -761.144          37.000  
G02  22539660.318   118446664.976         790.949          28.000  
G04  24989817.609   131322419.551       -1420.520          31.000  
G05  21662215.161   113835711.025        2513.078          41.000  
G06  21730448.524   114194291.174        -375.815          40.000    21730451.521    85274966.962        -280.578          42.000  
G09  22912126.065   120404022.132          25.017          37.000    22912123.667    89912109.714          18.320          37.000  
G12  22803747.494   119834457.7371       1754.149          29.000  
G17  21396021.942   112436870.979        -900.394          41.000  
G19  20621014.968   108364176.932        -249.782          41.000  
G28  23648485.894   124273663.318       -3210.285          30.000  
J01  38036439.721   199882853.316        -520.988          40.000    38036441.519   149263187.948        -389.658          40.000  
J02  36892996.810   193874021.353        -447.502          33.000    36893002.206   144776078.486        -333.305          34.000  
J03  37969405.827   199530588.721        1272.829          41.000    37969407.626   149000130.660         950.931          41.000  
R11  22742652.789   121529840.1731      -2265.660          22.000  
R21  20877255.976   111718413.733        1227.053          36.000  
> 2020  6 15  8 15 40.0000067  0 28
C01  37486341.246   195201235.707         171.888          34.000  
C03  36037568.411   187657090.366         172.648          36.000  
C06  38555546.850   200768892.566        1677.417          31.000  
C07  37559734.637   195583412.487       -1291.611          34.000  
C08  37381590.763   194655743.241          -9.710          33.000  
C09  40170402.009   209177818.469        1339.326          26.000  
C10  36799817.417   191626314.216       -1041.950          35.000  
C12  23538034.558   122568636.278        2152.490          27.000  
C13  37310855.332   194287443.404         -73.964          32.000  
C16  39280980.143   204546389.653        1775.681          30.000  
C19  25296012.135   131722989.777       -2715.909          33.000  
C21  22808899.727   118771936.127        2417.669          40.000  
C22  22141783.862   115298092.920        -544.549          41.000  
C26  26008870.034   135435028.013       -1645.609          32.000  
C35  23511204.932   122429032.291        -761.903          37.000  
G02  22539509.822   118445874.048         790.710          28.000  
G04  24990089.821   131323840.155       -1420.659          32.000  
G05  21661736.692   113833198.338        2512.189          41.000  
G06  21730521.373   114194666.983        -375.750          41.000    21730523.172    85275247.367        -280.384          42.000  
G09  22912121.868   120403997.572          24.006          38.000    22912118.870    89912090.437          17.583          37.000  
G12  22803414.125   119832703.914        1753.592          29.000  
G17  21396193.124   112437771.569        -900.998          41.000  
G19  20621062.336   108364427.235        -250.928          42.000  
G28  23649097.171   124276873.489       -3210.271          30.000  
J01  38036538.652   199883374.925        -521.668          40.000    38036540.751   149263577.648        -389.867          40.000  
J02  36893081.351   193874468.633        -447.085          33.000    36893087.347   144776412.288        -333.150          35.000  
J03  37969163.295   199529315.546        1272.936          42.000    37969165.394   148999179.738         950.891          42.000  
R21  20877026.635   111717186.520        1227.648          36.000  
> 2020  6 15  8 15 41.0000067  0 35
C01  37486307.969   195201063.572         172.151          34.000  
C02  37118209.598   193284255.0231        205.352          32.000  
C03  36037534.834   187656917.539         172.612          36.000  
C06  38555224.873   200767215.261        1676.829          31.000  
C07  37559982.565   195584704.088       -1291.779          34.000  
C08  37381593.162   194655753.261          -9.552          33.000  
C09  40170145.087   209176478.465        1340.429          27.000  
C10  36800017.978   191627356.567       -1042.750          35.000  
C12  23537619.945   122566483.596        2152.661          26.000  
C13  37310868.823   194287517.216         -73.743          32.000  
C16  39280639.279   204544613.681        1776.373          31.000  
C19  25296533.174   131725705.761       -2716.025          33.000  
C21  22808434.749   118769518.565        2417.520          40.000  
C22  22141887.290   115298637.257        -544.699          42.000  
C26  26009185.416   135436673.395       -1645.405          32.000  
C35  23511350.631   122429793.952        -761.667          37.000  
E09                                                                                                                                  23710420.617    93044799.5781       2118.459          38.000  
E12                                                                                                                                  24130953.588    94695044.8511       -397.867          34.000  
E19                                                                                                                                  27298058.547   107123444.3501      -1219.458          28.000  
E24                                                                                                                                  24657939.863    96763052.0461      -1778.484          35.000  
E25                                                                                                                                  25745537.735   101031019.5031       -682.878          34.000  
G02  22539359.026   118445083.270         790.708          28.000  
G04  24990359.934   131325261.460       -1421.732          32.000  
G05  21661257.923   113830686.261        2511.383          41.000  
G06  21730591.824   114195042.304        -374.972          41.000    21730594.223    85275527.667        -280.650          41.000  
G09  22912114.973   120403972.834          25.108          37.000    22912113.774    89912072.753          17.150          37.000  
G12  22803079.557   119830950.541        1753.030          30.000  
G17  21396365.205   112438672.778        -901.596          42.000  
G19  20621109.403   108364677.992        -250.553          42.000  
G28  23649706.049   124280083.824       -3210.397          30.000  
J01  38036639.382   199883896.522        -521.398          41.000    38036639.682   149263966.737        -388.277          40.000  
J02  36893166.492   193874915.618        -446.925          33.000    36893172.488   144776745.337        -333.260          34.000  
J03  37968921.363   199528042.607        1272.841          42.000    37968922.862   148998228.782         950.634          41.000  
R11  22743497.604   121534355.1081      -2266.202          22.000  
R21  20876797.894   111715962.047        1227.100          36.000  
> 2020  6 15  8 15 42.0000069  0 35
C01  37486333.152   195201203.481         172.276          34.000  
C03  36037561.515   187657057.476         171.481          36.000  
C04  38453841.959   200239257.8971        160.480          29.000  
C06  38554963.154   200765850.512        1677.221          31.000  
C07  37560290.152   195586307.889       -1291.797          34.000  
C08  37381655.219   194656075.405          -9.950          33.000  
C09  40169946.625   209175450.310        1339.647          27.000  
C10  36800278.797   191628711.363       -1042.692          35.000  
C12  23537267.389   122564642.972        2152.361          26.000  
C13  37310942.272   194287902.928         -73.760          32.000  
C16  39280357.774   204543149.340        1776.588          31.000  
C19  25297114.472   131728733.819       -2715.666          33.000  
C21  22808031.828   118767413.670        2417.031          40.000  
C22  22142051.277   115299494.821        -545.720          42.000  
C26  26009560.756   135438630.962       -1645.637          32.000  
C34  25771626.574   134199466.8451       2523.117          21.000  
C35  23511555.089   122430868.189        -762.711          37.000  
E09                                                                                                                                  23709940.650    93042916.666        2118.176          37.000  
E12                                                                                                                                  24131114.877    94695678.525        -399.008          34.000  
E19                                                                                                                                  27298428.791   107124899.201       -1220.127          28.000  
E24                                                                                                                                  24658453.408    96765066.033       -1779.271          35.000  
E25                                                                                                                                  25745771.873   101031937.345        -682.811          34.000  
G02  22539267.290   118444607.472         790.931          29.000  
G04  24990690.605   131326998.975       -1422.806          33.000  
G05  21660840.012   113828490.023        2511.613          41.000  
G06  21730724.033   114195732.966        -375.851          41.000    21730725.232    85276043.402        -280.030          41.000  
G09  22912170.734   120404264.381          23.529          38.000    22912169.535    89912290.745          16.820          37.000  
G12  22802804.347   119829512.966        1752.329          29.000  
G17  21396596.345   112439889.667        -901.592          42.000  
G19  20621217.928   108365244.165        -251.409          42.000  
G28  23650376.085   124283609.261       -3210.311          31.000  
J01  38036798.872   199884733.488        -521.639          41.000    38036798.572   149264591.267        -389.839          40.000  
J02  36893313.091   193875677.528        -446.780          34.000    36893317.288   144777314.447        -334.344          34.000  
J03  37968740.588   199527085.033        1272.975          42.000    37968740.288   148997513.285         950.936          41.000  
R21  20876630.909   111715068.085        1226.460          36.000  
> 2020  6 15  8 15 43.0000069  0 34
C01  37486298.975   195201031.107         172.274          34.000  
C03  36037528.838   187656885.700         171.682          36.000  
C06  38554641.177   200764172.941        1678.064          31.000  
C07  37560538.081   195587599.959       -1292.517          34.000  
C08  37381657.317   194656085.682         -10.779          33.000  
C09  40169690.302   209174110.354        1339.480          26.000  
C10  36800478.159   191629753.954       -1042.657          35.000  
C12  23536854.575   122562491.114        2151.667          26.000  
C13  37310956.063   194287976.868         -73.943          32.000  
C16  39280016.910   204541373.041        1776.023          31.000  
C19  25297635.811   131731448.935       -2715.251          32.000  
C21  22807568.049   118764996.758        2416.342          40.000  
C22  22142157.703   115300040.313        -545.495          41.000  
C26  26009877.037   135440276.554       -1645.227          32.000  
C35  23511701.088   122431630.374        -762.386          37.000  
E09                                                                                                                                  23709400.723    93040798.359        2118.337          37.000  
E12                                                                                                                                  24131216.207    94696077.029        -398.311          34.000  
E19                                                                                                                                  27298740.275   107126120.837       -1221.815          27.000  
E24                                                                                                                                  24658906.394    96766845.095       -1779.064          35.000  
E25                                                                                                                                  25745946.052   101032620.961        -683.805          34.000  
G02  22539116.494   118443816.415         791.144          29.000  
G04  24990962.517   131328422.427       -1423.971          32.000  
G05  21660360.644   113825978.444        2511.063          41.000  
G06  21730795.683   114196108.320        -375.438          40.000    21730796.882    85276323.837        -280.909          41.000  
G09  22912168.036   120404241.080          23.213          37.000    22912165.038    89912273.558          16.797          37.000  
G12  22802469.179   119827760.900        1751.613          29.000  
G17  21396767.826   112440791.703        -902.716          41.000  
G19  20621264.995   108365495.975        -252.451          41.000  
G28  23650987.962   124286819.481       -3210.390          32.000  
J01  38036898.403   199885254.984        -521.822          41.000    38036897.804   149264981.055        -389.869          40.000  
J02                                                                  36893402.429   144777648.677        -333.978          35.000  
J03  37968496.857   199525811.561        1273.493          41.000    37968498.056   148996562.780         950.251          41.000  
R11  22744413.770   121539250.8271      -2265.996          17.000  
R21  20876410.262   111713887.771        1227.361          36.000  
> 2020  6 15  8 15 44.0000072  0 36
C01  37486354.437   195201327.071         172.269          34.000  
C02  37118239.278   193284415.0911        207.733          32.000  
C03  36037586.398   187657182.250         171.803          36.000  
C04  38453870.439   200239406.6591        158.902          30.000  
C06  38554408.838   200762962.936        1678.042          31.000  
C07  37560876.546   195589360.344       -1292.041          35.000  
C08  37381748.754   194656564.582         -10.398          34.000  
C09  40169523.318   209173239.654        1338.089          26.000  
C10  36800768.058   191631264.862       -1042.482          36.000  
C13  37311059.491   194288518.918         -74.056          33.000  
C16  39279765.984   204540065.142        1775.636          31.000  
C19  25298247.088   131734632.410       -2716.045          33.000  
C21  22807193.009   118763049.230        2415.350          40.000  
C22  22142351.369   115301054.726        -546.998          42.000  
C26  26010282.656   135442389.675       -1644.422          32.000  
C34  25770749.681   134194897.6461       2517.729          21.000  
C35  23511938.224   122432861.273        -762.500          38.000  
E09                                                                                                                                  23708951.035    93039032.726        2118.410          38.000  
E12                                                                                                                                  24131407.774    94696828.464        -398.459          34.000  
E19                                                                                                                                  27299141.398   107127695.922       -1222.134          28.000  
E24                                                                                                                                  24659450.218    96768977.378       -1779.896          35.000  
E25                                                                                                                                  25746210.170   101033657.291        -682.757          34.000  
G02  22539055.037   118443497.652         791.463          29.000  
G04  24991324.066   131330318.681       -1423.696          32.000  
G05  21659973.612   113823940.416        2510.127          40.000  
G06  21730957.571   114196956.699        -375.881          40.000    21730958.770    85276957.130        -280.175          41.000  
G09  22912251.678   120404691.272          21.146          38.000    22912251.079    89912609.523          16.109          37.000  
G12  22802223.649   119826482.060        1751.179          29.000  
G17  21397028.945   112442166.734        -902.744          41.000  
G19  20621402.600   108366220.894        -252.903          41.000  
G28  23651690.675   124290502.437       -3210.487          31.000  
J01  38037087.572   199886249.247        -521.547          40.000    38037087.572   149265724.018        -390.337          40.000  
J02  36893572.111   193877042.8541       -446.000          33.000    36893577.808   144778335.587        -334.685          34.000  
J03  37968344.262   199525010.816        1272.906          41.000    37968345.761   148995965.340         950.144          41.000  
R11  22744923.717   121541976.094       -2265.627          17.000  
R21  20876266.362   111713117.250        1226.996          37.000  
> 2020  6 15  8 15 45.0000072  0 33
C01  37486321.160   195201154.792         172.073          33.000  
C02  37118199.105   193284207.479         207.236          31.000  
C03  36037552.821   187657010.202         172.140          36.000  
C06  38554086.861   200761284.728        1678.325          31.000  
C07  37561125.074   195590652.336       -1291.987          33.000  
C08  37381750.553   194656574.835          -9.842          33.000  
C09  40169266.695   209171900.409        1340.837          26.000  
C10  36800968.020   191632307.571       -1042.853          35.000  
C13  37311073.881   194288593.101         -74.485          32.000  
C16  39279424.520   204538289.389        1775.460          31.000  
C19  25298769.027   131737348.418       -2716.204          32.000  
C21  22806729.230   118760633.628        2415.849          40.000  
C22  22142456.596   115301601.791        -547.170          41.000  
C26  26010598.637   135444034.172       -1644.586          32.000  
C35  23512083.623   122433623.573        -762.820          37.000  
E09                                                                                                                                  23708412.008    93036914.272        2118.074          38.000  
E12                                                                                                                                  24131509.104    94697226.656        -398.089          34.000  
E19                                                                                                                                  27299451.683   107128916.283       -1220.019          29.000  
E24                                                                                                                                  24659903.804    96770756.979       -1779.352          36.000  
E25                                                                                                                                  25746384.349   101034340.567        -683.601          35.000  
G02  22538905.141   118442706.294         791.238          29.000  
G04  24991595.379   131331742.703       -1424.353          32.000  
G05  21659494.544   113821430.204        2510.049          41.000  
G06  21731027.423   114197332.270        -375.953          40.000    21731030.720    85277237.393        -280.543          42.000  
G09  22912246.282   120404669.811          21.599          38.000    22912247.181    89912592.898          16.312          38.000  
G12  22801889.380   119824731.031        1750.688          30.000  
G17  21397200.726   112443069.581        -902.839          41.000  
G19  20621451.766   108366473.736        -252.648          41.000  
G28  23652303.151   124293712.874       -3210.486          31.000  
J01  38037185.904   199886770.355        -521.286          41.000    38037187.103   149266113.893        -389.952          41.000  
J02  36893656.653   193877489.005        -446.831          33.000    36893662.949   144778669.852        -334.352          35.000  
J03  37968102.630   199523737.529        1273.324          42.000    37968104.128   148995014.549         950.896          42.000  
R21  20876046.913   111711943.582        1226.657          37.000  
> 2020  6 15  8 15 46.0000074  0 34
C01  37486348.741   195201294.974         171.630          35.000  
C03  36037578.903   187657150.049         172.156          37.000  
C06  38553825.442   200759918.692        1677.753          32.000  
C07  37561432.961   195592256.742       -1292.284          35.000  
C08  37381812.310   194656896.635          -9.015          34.000  
C09  40169066.734   209170871.457        1341.208          26.000  
C10  36801228.839   191633662.542       -1042.853          36.000  
C13  37311148.230   194288979.534         -74.297          32.000  
C16  39279144.214   204536826.119        1775.447          32.000  
C19  25299350.924   131740376.505       -2715.925          33.000  
C21  22806326.309   118758530.038        2415.858          40.000  
C22  22142621.782   115302460.923        -547.480          42.000  
C24  26121185.180   136019865.1021      -1366.048          21.000  
C26  26010975.476   135445991.017       -1644.752          32.000  
C35  23512289.281   122434698.704        -763.596          38.000  
E09                                                                                                                                  23707932.040    93035031.311        2118.115          38.000  
E12                                                                                                                                  24131670.992    94697860.115        -398.245          35.000  
E19                                                                                                                                  27299822.226   107130372.036       -1220.897          29.000  
E24                                                                                                                                  24660417.049    96772771.551       -1779.351          36.000  
E25                                                                                                                                  25746618.787   101035259.790        -683.765          35.000  
G02  22538815.203   118442230.172         791.111          29.000  
G04  24991925.450   131333482.706       -1425.197          32.000  
G05  21659077.233   113819235.904        2509.106          41.000  
G06  21731157.832   114198022.763        -375.316          40.000    21731161.730    85277753.299        -280.647          42.000  
G09  22912302.943   120404963.330          21.164          38.000    22912302.643    89912812.096          16.311          38.000  
G12  22801615.970   119823295.614        1750.156          30.000  
G17  21397433.965   112444288.058        -903.717          41.000  
G19  20621560.591   108367041.720        -253.294          41.000  
G28  23652973.787   124297238.373       -3210.563          32.000  
J01  38037345.094   199887607.334        -522.263          41.000    38037346.293   149266738.630        -388.918          41.000  
J02  36893801.153   193878251.351        -447.536          33.000    36893807.748   144779239.215        -333.440          35.000  
J03  37967920.356   199522779.101        1273.162          41.000    37967921.555   148994298.915         950.433          42.000  
R11  22745820.996   121546770.2421      -2266.883          18.000  
R21  20875872.134   111711008.386        1227.044          37.000  
> 2020  6 15  8 15 47.0000074  0 33
C01  37486316.963   195201123.270         171.505          34.000  
C03  36037545.626   187656977.684         173.062          37.000  
C06  38553504.065   200758241.102        1677.102          31.000  
C07  37561680.290   195593549.096       -1291.980          34.000  
C08  37381814.109   194656905.338          -8.223          34.000  
C09  40168808.313   209169529.711        1341.616          26.000  
C10  36801428.501   191634705.290       -1043.183          36.000  
C13  37311161.720   194289053.633         -74.476          32.000  
C16  39278803.650   204535050.522        1775.392          32.000  
C19  25299872.563   131743092.434       -2716.020          33.000  
C21  22805861.631   118756114.298        2415.184          40.000  
C22  22142726.409   115303008.734        -548.101          41.000  
C24  26121446.299   136021232.335       -1367.286          23.000  
C26  26011291.458   135447635.403       -1644.045          32.000  
C35  23512436.179   122435461.928        -763.758          37.000  
E09                                                                                                                                  23707391.514    93032913.738        2118.240          38.000  
E12                                                                                                                                  24131772.621    94698258.393        -398.271          35.000  
E19                                                                                                                                  27300132.811   107131591.789       -1218.822          28.000  
E24                                                                                                                                  24660870.335    96774550.275       -1778.625          36.000  
E25                                                                                                                                  25746793.266   101035943.842        -684.343          35.000  
G02  22538664.108   118441438.930         791.092          30.000  
G04  24992196.762   131334908.056       -1425.693          32.000  
G05  21658599.663   113816726.840        2509.256          40.000  
G06  21731232.181   114198398.265        -375.984          40.000    21731232.781    85278033.722        -280.386          43.000  
G09  22912299.045   120404941.990          21.206          37.000    22912298.446    89912796.376          14.963          38.000  
G12  22801282.601   119821545.741        1749.441          30.000  
G17  21397606.345   112445192.144        -904.236          41.000  
G19  20621609.157   108367295.120        -253.972          40.000  
G28  23653583.565   124300448.848       -3210.589          31.000  
J01  38037447.323   199888129.412        -521.924          40.000    38037445.225   149267127.749        -389.570          41.000  
J02                                                                  36893892.889   144779572.543        -333.201          35.000  
J03  37967677.524   199521505.938        1273.148          41.000    37967678.723   148993348.080         951.152          42.000  
R21  20875638.596   111709758.878        1226.522          37.000  
> 2020  6 15  8 15 48.0000077  0 34
C01  37486374.823   195201420.047         171.165          33.000  
C03  36037602.887   187657272.639         174.093          35.000  
C06  38553272.625   200757033.025        1675.882          31.000  
C07  37562018.756   195595309.081       -1291.708          34.000  
C08  37381904.946   194657382.058          -8.401          33.000  
C09  40168639.230   209168656.121        1342.023          26.000  
C10  36801718.401   191636216.373       -1042.745          35.000  
C13  37311265.748   194289595.962         -74.178          32.000  
C16  39278552.124   204533742.810        1776.231          31.000  
C19  25300484.439   131746277.088       -2716.819          32.000  
C21  22805487.789   118754167.478        2414.974          40.000  
C22  22142920.675   115304025.348        -549.132          41.000  
C24  26121797.656   136023067.551       -1368.048          22.000  
C26  26011697.976   135449747.770       -1644.630          31.000  
C35  23512671.816   122436693.719        -763.780          36.000  
E09                                                                                                                                  23706941.826    93031148.804        2117.470          38.000  
E12                                                                                                                                  24131963.589    94699009.374        -398.105          34.000  
E19                                                                                                                                  27300532.734   107133164.213       -1220.480          28.000  
E24                                                                                                                                  24661412.959    96776681.840       -1778.835          36.000  
E25                                                                                                                                  25747057.083   101036980.949        -684.936          35.000  
G02  22538602.350   118441120.361         791.120          29.000  
G04  24992556.513   131336805.807       -1424.951          31.000  
G05  21658211.132   113814690.696        2507.862          40.000  
G06  21731391.371   114199246.206        -375.367          40.000    21731394.069    85278667.295        -281.237          41.000  
G09  22912386.585   120405394.535          19.247          37.000    22912384.786    89913134.335          14.725          37.000  
G12  22801037.970   119820269.139        1749.003          30.000  
G17  21397866.865   112446568.840        -904.591          41.000  
G19  20621745.862   108368022.027        -255.298          40.000  
G28  23654285.379   124304131.818       -3210.302          31.000  
J01  38037634.993   199889123.706        -521.972          40.000    38037634.394   149267870.726        -390.317          40.000  
J02                                                                  36894067.369   144780258.428        -333.325          34.000  
J03  37967525.229   199520705.733        1272.753          41.000    37967526.129   148992750.136         950.884          41.000  
R11  22746752.151   121551746.0831      -2268.249          19.000  
R21  20875501.891   111709026.462        1227.224          37.000  
> 2020  6 15  8 15 49.0000077  0 35
C01  37486342.745   195201248.959         170.714          33.000  
C02  37118191.611   193284165.7971        203.953          31.000  
C03  36037571.408   187657098.839         172.676          36.000  
C06  38552950.648   200755356.784        1676.365          31.000  
C07  37562266.084   195596600.736       -1291.584          33.000  
C08  37381906.744   194657390.640          -8.394          33.000  
C09  40168382.008   209167313.816        1342.060          26.000  
C10  36801918.962   191637259.495       -1043.575          35.000  
C13  37311280.738   194289669.892         -74.181          31.000  
C16  39278210.960   204531966.053        1777.013          30.000  
C19  25301005.478   131748994.047       -2717.445          32.000  
C21  22805023.411   118751753.284        2414.467          40.000  
C22  22143028.300   115304574.330        -548.565          41.000  
C24  26122058.175   136024436.035       -1369.492          22.000  
C26  26012013.658   135451391.929       -1644.280          32.000  
C34  25768458.068   134183073.6211       2524.749          22.000  
C35  23512819.913   122437457.804        -763.799          36.000  
E09                                                                                                                                  23706402.499    93029030.937        2118.736          38.000  
E12                                                                                                                                  24132064.619    94699407.540        -398.715          34.000  
E19                                                                                                                                  27300844.219   107134385.744       -1221.573          28.000  
E24                                                                                                                                  24661866.545    96778460.676       -1778.926          35.000  
E25                                                                                                                                  25747231.263   101037665.801        -684.954          35.000  
G02  22538450.655   118440329.359         790.895          29.000  
G04  24992827.825   131338231.479       -1426.482          30.000  
G05  21657734.462   113812182.628        2507.802          40.000  
G06  21731464.220   114199621.986        -375.085          39.000    21731466.019    85278948.286        -280.827          42.000  
G09  22912384.486   120405374.534          20.258          37.000    22912381.189    89913118.760          15.296          38.000  
G12  22800704.900   119818520.500        1748.361          31.000  
G17  21398038.646   112447473.739        -905.250          40.000  
G19  20621793.529   108368276.783        -254.762          41.000  
G28  23654894.257   124307342.242       -3210.819          30.000  
J01  38037733.025   199889645.691        -522.110          40.000    38037733.925   149268260.649        -389.623          41.000  
J02                                                                  36894152.510   144780592.502        -334.581          35.000  
J03  37967283.896   199519432.905        1272.972          41.000    37967284.496   148991799.276         950.922          42.000  
R21  20875265.055   111707759.785        1226.583          37.000  
> 2020  6 15  8 15 50.0000079  0 33
C01  37486370.326   195201390.394         170.557          34.000  
C03  36037598.390   187657239.186         171.431          36.000  
C06  38552688.629   200753992.071        1677.589          31.000  
C07  37562574.571   195598204.734       -1292.241          35.000  
C08  37381968.202   194657710.904          -8.486          34.000  
C09  40168183.845   209166283.733        1342.133          26.000  
C10  36802179.182   191638615.242       -1043.670          35.000  
C13  37311356.286   194290056.053         -74.042          32.000  
C16  39277929.155   204530501.557        1776.301          31.000  
C19  25301586.776   131752023.795       -2717.916          33.000  
C21  22804619.291   118749651.656        2413.551          40.000  
C22  22143194.086   115305436.304        -550.318          41.000  
C24  26122380.452   136026118.271       -1369.999          21.000  
C26  26012388.998   135453348.459       -1644.567          32.000  
C34  25768030.863   134180862.631        2522.456          22.000  
C35  23513025.871   122438533.957        -764.222          36.000  
E09                                                                                                                                  23705923.131    93027148.053        2117.969          38.000  
E12                                                                                                                                  24132226.507    94700041.506        -398.383          34.000  
E19                                                                                                                                  27301215.961   107135842.581       -1221.315          28.000  
E24                                                                                                                                  24662380.090    96780475.143       -1779.085          36.000  
E25                                                                                                                                  25747466.300   101038586.485        -685.290          35.000  
G02  22538359.518   118439853.308         791.581          29.000  
G04  24993158.496   131339972.622       -1425.831          31.000  
G05  21657317.751   113809990.032        2507.355          40.000  
G06  21731597.028   114200312.720        -376.229          40.000    21731597.928    85279464.367        -280.682          42.000  
G09  22912436.650   120405670.651          18.016          37.000    22912438.149    89913339.942          12.809          38.000  
G17  21398270.685   112448694.201        -905.880          41.000  
G19  20621903.253   108368847.004        -255.691          41.000  
G28  23655566.092   124310867.804       -3210.775          31.000  
J01  38037892.815   199890483.259        -522.725          40.000    38037893.414   149268885.382        -389.688          41.000  
J02  36894291.314   193880825.5781       -446.859          32.000    36894297.909   144781162.179        -334.013          35.000  
J03  37967100.723   199518474.570        1273.238          41.000    37967102.522   148991083.981         950.865          42.000  
R21  20875095.372   111706851.631        1226.665          37.000  
> 2020  6 15  8 15 51.0000079  0 37
C01  37486337.948   195201219.791         170.427          34.000  
C03  36037563.614   187657067.497         172.211          37.000  
C06  38552366.952   200752314.482        1677.488          31.000  
C07  37562822.499   195599497.129       -1292.441          34.000  
C08  37381970.001   194657719.600          -8.367          34.000  
C09  40167925.724   209164941.363        1341.699          26.000  
C10  36802379.143   191639658.656       -1043.864          35.000  
C12  23533855.451   122546842.3871       2150.148          26.000  
C13  37311370.676   194290129.919         -73.599          32.000  
C16  39277587.392   204528725.500        1775.605          31.000  
C19  25302108.415   131754741.515       -2717.831          32.000  
C21  22804156.711   118747238.589        2412.782          40.000  
C22  22143297.814   115305986.190        -550.265          41.000  
C24  26122642.471   136027487.995       -1370.324          20.000  
C26  26012704.379   135454993.106       -1644.768          31.000  
C35  23513172.170   122439298.037        -764.666          37.000  
E09                                                                                                                                  23705383.504    93025030.108        2117.681          38.000  
E12                                                                                                                                  24132327.837    94700439.748        -398.281          35.000  
E19                                                                                                                                  27301528.045   107137064.809       -1222.822          29.000  
E24                                                                                                                                  24662833.676    96782254.031       -1779.253          36.000  
E25                                                                                                                                  25747641.079   101039271.698        -685.172          36.000  
G02  22538209.322   118439062.352         790.586          29.000  
G04  24993430.108   131341398.724       -1426.940          31.000  
G05  21656841.381   113807482.698        2507.415          42.000  
G06  21731668.979   114200688.735        -375.618          40.000    21731669.578    85279745.029        -280.927          42.000  
G09  22912434.252   120405651.950          18.449          37.000    22912434.851    89913326.897          13.432          38.000  
G12  22800098.121   119815340.0451       1747.166          32.000  
G17  21398444.565   112449600.126        -906.540          42.000  
G19  20621953.019   108369102.679        -255.800          41.000  
G28  23656177.669   124314078.883       -3211.433          31.000  
J01  38037993.545   199891005.336        -521.903          41.000    38037993.545   149269275.378        -390.304          41.000  
J02  36894376.455   193881272.781        -446.824          33.000    36894383.050   144781495.872        -333.153          35.000  
J03  37966859.090   199517201.331        1272.556          42.000    37966860.589   148990133.397         950.550          42.000  
R06  19625485.159   104725348.6081       -660.830          35.000  
R07  20336214.831   108861349.3491       3226.115          39.000  
R11  22748083.829   121558862.8591      -2267.029          19.000  
R21  20874865.431   111705621.223        1225.454          37.000  
> 2020  6 15  8 15 52.0000082  0 36
C01  37486395.808   195201517.694         170.218          32.000  
C03  36037621.474   187657363.605         171.732          35.000  
C06  38552134.613   200751105.472        1677.530          31.000  
C07  37563160.365   195601258.105       -1292.961          33.000  
C08  37382061.437   194658196.363          -8.672          33.000  
C09  40167756.941   209164068.132        1341.246          25.000  
C10  36802669.042   191641170.841       -1044.132          34.000  
C12  23533534.373   122545160.538        2149.313          26.000  
C13  37311474.104   194290671.853         -73.501          32.000  
C16  39277335.566   204527417.393        1776.393          30.000  
C19  25302719.392   131757927.306       -2716.942          32.000  
C21  22803781.970   118745293.750        2413.699          40.000  
C22  22143493.878   115307004.692        -550.620          40.000  
C26  26013109.099   135457105.306       -1643.492          30.000  
C34  25767148.274   134176286.1641       2521.039          22.000  
C35  23513407.806   122440530.873        -764.352          36.000  
E09                                                                                                                                  23704933.216    93023265.891        2116.854          38.000  
E12                                                                                                                                  24132519.105    94701191.150        -398.570          35.000  
E19  27301929.468   143472606.7661      -1635.674          26.000    27301929.767   107138640.042       -1222.541          28.000  
E24                                                                                                                                  24663376.600    96784386.475       -1779.444          36.000  
E25                                                                                                                                  25747905.796   101040309.960        -685.523          35.000  
G02  22538149.364   118438744.264         791.012          29.000  
G04  24993791.358   131343298.769       -1427.911          31.000  
G05  21656455.548   113805448.215        2506.373          41.000  
G06  21731830.267   114201537.288        -376.042          40.000    21731830.567    85280378.786        -280.380          42.000  
G09  22912522.091   120406106.441          18.161          37.000    22912520.892    89913666.227          13.429          38.000  
G12  22799855.289   119814065.588        1746.279          32.000  
G17  21398706.584   112450978.800        -905.689          41.000  
G19  20622091.823   108369831.555        -256.978          41.000  
G28  23656879.483   124317762.801       -3211.207          31.000  
J01  38038182.714   199892000.221        -522.534          40.000    38038182.114   149270018.580        -390.363          41.000  
J02  36894550.934   193882192.258        -447.262          33.000    36894557.829   144782182.457        -333.360          35.000  
J03  37966707.096   199516400.998        1273.050          41.000    37966707.695   148989535.610         950.868          42.000  
R06  19625701.609   104726489.697        -661.394          34.000  
R07  20335704.585   108858618.098        3225.271          39.000  
R21  20874724.829   111704868.504        1226.214          36.000  
> 2020  6 15  8 15 53.0000082  0 38
C01  37486362.831   195201347.309         170.359          33.000  
C03  36037588.197   187657192.210         171.237          35.000  
C06  38551812.336   200749428.409        1676.337          30.000  
C07  37563408.893   195602550.977       -1292.322          33.000  
C08  37382063.536   194658204.957          -8.890          32.000  
C09  40167497.620   209162727.603        1339.797          25.000  
C10  36802870.503   191642214.790       -1044.213          34.000  
C12  23533123.957   122543010.807        2150.595          25.000  
C13  37311488.494   194290744.818         -72.800          31.000  
C16  39276994.403   204525640.466        1776.694          30.000  
C19  25303240.431   131760644.219       -2717.154          31.000  
C21  22803319.690   118742880.481        2413.086          39.000  
C22  22143598.506   115307555.716        -550.944          40.000  
C24  26123257.045   136030696.7151      -1369.600          18.000  
C26  26013425.380   135458748.026       -1642.190          30.000  
C34  25766667.407   134173765.302        2520.986          23.000  
C35  23513555.304   122441295.924        -764.340          36.000  
E09                                                                                                                                  23704393.890    93021148.857        2117.679          38.000  
E12                                                                                                                                  24132620.734    94701589.724        -398.600          35.000  
E19  27302240.053   143474243.052       -1636.024          25.000    27302241.851   107139861.818       -1221.083          28.000  
E24                                                                                                                                  24663830.186    96786165.267       -1778.743          36.000  
E25                                                                                                                                  25748080.275   101040995.925        -686.564          35.000  
G02  22537998.568   118437953.210         791.111          29.000  
G04  24994062.670   131344726.723       -1428.068          31.000  
G05  21655978.278   113802941.484        2506.536          40.000  
G06  21731901.018   114201912.905        -375.896          39.000    21731901.917    85280659.376        -280.801          42.000  
G09  22912517.894   120406088.582          17.574          37.000    22912517.894    89913653.335          12.498          38.000  
G12  22799522.819   119812319.226        1746.238          32.000  
G17  21398878.665   112451885.087        -906.497          40.000  
G19  20622139.790   108370088.187        -256.792          40.000  
G28  23657489.861   124320973.664       -3210.724          30.000  
J01  38038281.646   199892522.341        -522.331          40.000    38038281.646   149270408.637        -390.135          41.000  
J02  36894636.075   193882639.818        -448.137          32.000    36894642.670   144782515.441        -333.131          35.000  
J03  37966465.463   199515127.995        1272.919          41.000    37966465.463   148988584.969         950.749          42.000  
R06  19625828.422   104727151.297        -661.994          34.000  
R07  20335098.704   108855375.127        3224.622          39.000  
R12  23338976.563   124672623.5921        -78.980          33.000  
R21  20874499.984   111703665.356        1225.512          37.000  
> 2020  6 15  8 15 54.0000084  0 36
C01  37486390.112   195201489.106         170.248          33.000  
C02  37118204.802   193284238.0901        204.475          31.000  
C03  36037615.478   187657333.152         171.237          36.000  
C06  38551550.017   200748064.172        1676.846          31.000  
C07  37563716.480   195604155.509       -1292.126          33.000  
C08  37382124.694   194658526.252          -9.720          33.000  
C09  40167298.558   209161699.257        1341.329          26.000  
C10  36803131.622   191643571.157       -1044.143          34.000  
C12  23532769.303   122541172.251        2150.479          25.000  
C13  37311562.243   194291129.926         -73.037          31.000  
C16  39276712.598   204524176.524        1775.387          30.000  
C19  25303821.729   131763674.133       -2717.842          32.000  
C21  22802916.469   118740780.448        2411.730          39.000  
C22  22143763.991   115308419.486        -551.862          41.000  
C26  26013800.421   135460701.863       -1641.675          30.000  
C34  25766240.203   134171556.899        2520.136          20.000  
C35  23513760.662   122442372.935        -765.609          36.000  
E09                                                                                                                                  23703914.521    93019266.619        2117.670          38.000  
E12                                                                                                                                  24132782.322    94702223.244        -398.501          35.000  
E19                                                                                                                                  27302613.594   107141318.827       -1222.078          28.000  
E24                                                                                                                                  24664343.131    96788179.197       -1778.493          36.000  
E25                                                                                                                                  25748315.312   101041917.983        -686.941          35.000  
G04  24994394.541   131346469.691       -1428.269          30.000  
G05  21655560.667   113800750.474        2505.901          40.000  
G06  21732030.828   114202603.952        -375.424          38.000    21732033.526    85281175.344        -280.705          42.000  
G09  22912573.655   120406386.514          16.287          36.000    22912574.555    89913876.217          11.788          38.000  
G12  22799249.108   119810888.051        1745.564          31.000  
G17  21399111.603   112453107.040        -907.458          40.000  
G19  20622248.015   108370660.630        -257.732          41.000  
G28  23658162.295   124324499.700       -3210.955          30.000  
J01  38038441.435   199893359.640        -521.769          40.000    38038440.835   149271033.611        -390.011          40.000  
J02                                                                  36894788.370   144783083.844        -333.333          35.000  
J03  37966281.690   199514170.016        1272.854          41.000    37966283.189   148987869.533         951.088          41.000  
R06  19626014.893   104728133.341        -662.769          35.000  
R07  20334552.482   108852450.623        3224.257          40.000  
R21  20874329.402   111702753.173        1225.861          38.000  
> 2020  6 15  8 15 55.0000084  0 34
C01  37486357.135   195201318.704         169.978          33.000  
C03  36037582.201   187657161.859         171.080          36.000  
C06  38551227.441   200746387.616        1676.091          31.000  
C07  37563964.409   195605447.564       -1291.916          34.000  
C08  37382126.492   194658535.662          -9.404          33.000  
C09  40167041.336   209160358.315        1340.124          26.000  
C10  36803332.483   191644615.162       -1043.844          35.000  
C12  23532352.292   122539022.138        2150.209          26.000  
C13  37311576.933   194291202.718         -73.177          32.000  
C16  39276372.333   204522401.547        1774.886          31.000  
C19  25304344.867   131766391.748       -2717.396          32.000  
C21  22802453.890   118738368.294        2412.754          40.000  
C22  22143871.017   115308971.468        -552.562          41.000  
C26  26014115.802   135462343.659       -1641.903          31.000  
C35  23513909.059   122443138.225        -764.794          36.000  
E09                                                                                                                                  23703374.595    93017149.042        2116.816          38.000  
E12                                                                                                                                  24132884.252    94702621.661        -398.567          34.000  
E19                                                                                                                                  27302923.879   107142541.033       -1222.667          28.000  
E24                                                                                                                                  24664796.717    96789958.266       -1779.516          36.000  
E25                                                                                                                                  25748490.091   101042604.894        -686.458          35.000  
G02  22537756.936   118436686.8531        790.925          30.000  
G04  24994666.752   131347898.253       -1428.556          31.000  
G05  21655080.100   113798245.142        2505.141          40.000  
G06  21732102.179   114202979.735        -376.200          39.000    21732104.877    85281456.053        -281.022          42.000  
G09  22912569.758   120406370.502          15.421          37.000    22912571.257    89913864.199          12.270          38.000  
G17  21399284.883   112454014.769        -907.318          41.000  
G19  20622295.982   108370918.365        -258.297          40.000  
G28  23658772.073   124327710.343       -3211.049          29.000  
J01  38038539.167   199893881.649        -521.870          40.000    38038540.067   149271423.836        -390.542          41.000  
J02  36894865.116   193883850.2651       -448.183          33.000    36894873.211   144783417.876        -334.309          35.000  
J03  37966038.259   199512896.949        1272.965          41.000    37966040.657   148986918.341         950.935          42.000  
R06  19626140.206   104728796.957        -664.556          36.000  
R07  20333953.197   108849243.497        3223.566          39.000  
R21  20874113.252   111701595.708        1225.530          38.000  
> 2020  6 15  8 15 56.0000087  0 36
C01  37486414.695   195201616.995         169.918          33.000  
C03  36037638.262   187657458.810         171.443          36.000  
C04  38453944.188   200239820.3751        161.137          29.000  
C06  38550995.401   200745179.768        1676.219          31.000  
C07  37564302.275   195607207.952       -1292.238          33.000  
C08  37382218.229   194659013.336          -8.986          33.000  
C09  40166872.853   209159486.439        1340.962          26.000  
C10  36803621.783   191646127.124       -1043.917          34.000  
C13  37311680.661   194291743.632         -72.375          32.000  
C16  39276121.707   204521093.831        1775.939          31.000  
C19  25304956.443   131769577.074       -2717.510          31.000  
C21  22802080.348   118736424.889        2411.481          40.000  
C22  22144067.681   115309991.918        -552.521          41.000  
C24  26124198.094   136035571.9101      -1363.819          18.000  
C26  26014520.822   135464454.081       -1642.651          31.000  
C34  25765366.008   134166981.1921       2522.948          19.000  
C35  23514146.795   122444371.959        -765.838          36.000  
E09                                                                                                                                  23702925.206    93015384.676        2117.441          38.000  
E12                                                                                                                                  24133075.220    94703372.644        -397.613          34.000  
E19                                                                                                                                  27303325.301   107144116.537       -1222.260          28.000  
E24                                                                                                                                  24665340.240    96792090.500       -1779.657          36.000  
E25                                                                                                                                  25748754.508   101043644.252        -686.844          35.000  
G02  22537696.377   118436368.411         791.068          30.000  
G04  24995028.902   131349800.246       -1429.873          32.000  
G05  21654695.766   113796212.420        2505.010          41.000  
G06  21732263.767   114203828.536        -376.361          39.000    21732266.465    85282089.883        -280.610          42.000  
G09  22912658.197   120406827.807          14.959          37.000    22912658.197    89914205.345          11.519          38.000  
G17  21399547.801   112455395.046        -908.163          41.000  
G19  20622434.186   108371649.141        -258.602          41.000  
G28  23659472.388   124331393.536       -3210.474          29.000  
J01  38038728.936   199894876.586        -522.735          41.000    38038729.236   149272167.216        -390.006          40.000  
J02  36895040.795   193884770.865        -447.367          33.000    36895048.290   144784104.628        -334.072          34.000  
J03  37965885.364   199512096.492        1272.962          41.000    37965888.362   148986320.540         950.553          41.000  
R06  19626357.555   104729941.841        -665.526          35.000  
R07  20333442.051   108846506.756        3222.857          40.000  
R21  20873971.750   111700839.254        1225.490          38.000  
> 2020  6 15  8 15 57.0000087  0 36
C01  37486382.018   195201446.964         169.914          34.000  
C03  36037604.386   187657286.832         171.622          36.000  
C04  38453913.310   200239659.296         160.727          30.000  
C06  38550673.424   200743503.140        1676.326          31.000  
C07  37564549.903   195608499.980       -1291.832          33.000  
C08  37382220.028   194659022.034          -8.247          34.000  
C09  40166615.331   209158145.182        1341.121          27.000  
C10  36803822.044   191647171.131       -1044.437          34.000  
C12  23531611.205   122535188.0791       2152.152          26.000  
C13  37311694.451   194291815.989         -72.023          31.000  
C16  39275780.543   204519317.535        1776.653          31.000  
C19  25305478.981   131772294.919       -2718.226          32.000  
C21  22801618.968   118734013.809        2411.329          40.000  
C22  22144175.306   115310545.130        -553.413          41.000  
C24  26124459.513   136036936.358       -1365.486          18.000  
C26  26014836.204   135466096.371       -1642.101          31.000  
C35  23514294.293   122445137.739        -765.938          37.000  
E09                                                                                                                                  23702385.880    93013266.844        2117.417          38.000  
E12                                                                                                                                  24133176.550    94703770.465        -397.426          34.000  
E19                                                                                                                                  27303637.385   107145339.665       -1223.603          29.000  
E24                                                                                                                                  24665793.227    96793869.228       -1778.757          36.000  
E25                                                                                                                                  25748929.287   101044331.011        -686.852          35.000  
G02  22537545.882   118435576.854         793.046          30.000  
G04  24995300.214   131351230.547       -1430.526          32.000  
G05  21654217.597   113793707.913        2503.732          41.000  
G06  21732334.218   114204204.603        -376.094          40.000    21732338.115    85282370.801        -281.081          42.000  
G09  22912655.199   120406812.665          15.253          37.000    22912655.199    89914193.816          11.186          38.000  
G17  21399718.983   112456303.434        -908.627          41.000  
G19  20622484.851   108371907.904        -258.997          41.000  
G28  23660083.365   124334604.377       -3211.399          30.000  
J01  38038826.968   199895398.869        -522.521          41.000    38038828.767   149272557.110        -389.855          40.000  
J02  36895125.336   193885217.809        -446.671          33.000    36895133.431   144784438.308        -333.410          35.000  
J03  37965643.432   199510823.286        1273.321          41.000    37965646.130   148985369.388         951.060          41.000  
R06  19626482.569   104730607.428        -665.752          36.000  
R07  20332840.368   108843286.084        3222.692          40.000  
R21  20873738.811   111699592.359        1226.134          38.000  
> 2020  6 15  8 15 58.0000087  0 34
C01  37486349.041   195201276.973         169.830          34.000  
C03  36037569.610   187657115.503         171.553          36.000  
C06  38550351.447   200741826.674        1676.605          32.000  
C07  37564797.832   195609791.821       -1291.890          33.000  
C08  37382221.227   194659029.872          -7.926          34.000  
C09  40166359.608   209156803.491        1342.099          27.000  
C10  36804023.505   191648215.264       -1044.331          35.000  
C12  23531194.493   122533035.659        2152.078          26.000  
C13  37311708.542   194291888.173         -72.350          32.000  
C16  39275438.780   204517540.651        1777.337          30.000  
C19  25306001.220   131775012.761       -2718.037          32.000  
C21  22801155.189   118731602.719        2411.324          40.000  
C22  22144281.433   115311099.039        -553.852          42.000  
C26  26015151.585   135467738.352       -1642.134          32.000  
C35  23514442.090   122445903.581        -765.589          37.000  
E09                                                                                                                                  23701846.253    93011149.566        2117.683          38.000  
E12                                                                                                                                  24133277.879    94704168.365        -398.588          34.000  
E19                                                                                                                                  27303949.169   107146562.805       -1222.553          29.000  
E24                                                                                                                                  24666246.813    96795648.260       -1778.846          36.000  
E25                                                                                                                                  25749104.666   101045018.334        -687.308          35.000  
G02  22537393.587   118434783.311         793.390          29.000  
G04  24995571.826   131352661.172       -1431.097          31.000  
G05  21653743.026   113791203.544        2504.173          40.000  
G06  21732407.367   114204580.706        -375.922          39.000    21732409.466    85282651.518        -281.079          42.000  
G09  22912650.702   120406797.804          14.789          36.000    22912652.801    89914182.755          11.213          39.000  
G17  21399892.563   112457212.104        -908.975          41.000  
G19  20622534.317   108372166.932        -259.187          40.000  
G28  23660694.942   124337814.944       -3210.831          29.000  
J01  38038926.199   199895921.516        -522.266          40.000    38038928.298   149272946.947        -389.833          40.000  
J02  36895209.878   193885664.527        -446.700          32.000    36895218.572   144784771.947        -334.139          35.000  
J03  37965402.699   199509550.330        1273.106          41.000    37965403.898   148984418.698         950.699          42.000  
R06  19626608.781   104731273.801        -666.780          36.000  
R07  20332237.785   108840060.729        3221.688          40.000  
R21  20873505.273   111698343.040        1226.206          38.000  
> 2020  6 15  8 15 59.0000087  0 34
C01  37486316.063   195201106.967         169.882          33.000  
C02  37118097.776   193283684.1381        204.358          30.000  
C03  36037536.932   187656942.867         173.743          35.000  
C06  38550029.170   200740149.767        1676.439          30.000  
C07  37565046.360   195611083.835       -1292.244          33.000  
C08  37382222.126   194659037.603          -7.757          33.000  
C09  40166102.986   209155460.602        1343.036          27.000  
C10  36804224.665   191649259.673       -1044.630          34.000  
C12  23530781.979   122530883.834        2151.113          25.000  
C13  37311720.833   194291960.228         -71.773          32.000  
C16  39275097.915   204515763.765        1776.334          30.000  
C19  25306523.758   131777730.221       -2717.336          32.000  
C21  22800691.710   118729191.621        2410.670          39.000  
C22  22144387.859   115311653.037        -554.720          41.000  
C26  26015467.866   135469379.911       -1641.411          31.000  
C35  23514589.289   122446668.870        -766.454          36.000  
E09                                                                                                                                  23701306.627    93009032.798        2115.649          38.000  
E12                                                                                                                                  24133379.509    94704566.219        -397.845          34.000  
E19                                                                                                                                  27304260.354   107147785.202       -1223.819          29.000  
E24                                                                                                                                  24666700.399    96797427.139       -1779.761          36.000  
E25                                                                                                                                  25749279.745   101045705.397        -686.946          35.000  
G04  24995843.138   131354092.190       -1431.370          30.000  
G05  21653264.557   113788699.840        2503.836          40.000  
G06  21732479.018   114204956.866        -376.606          39.000    21732481.116    85282932.327        -281.004          42.000  
G09  22912647.704   120406783.395          13.943          37.000    22912650.102    89914172.390          10.092          38.000  
G17  21400065.843   112458120.872        -908.978          41.000  
G19  20622586.181   108372426.133        -259.115          40.000  
G28  23661305.919   124341025.556       -3210.787          30.000  
J01  38039026.630   199896443.849        -522.885          40.000    38039027.529   149273336.836        -390.416          40.000  
J02  36895295.319   193886111.004        -446.311          31.000    36895303.413   144785105.920        -334.356          35.000  
J03  37965159.867   199508276.779        1273.456          40.000    37965161.366   148983468.131         950.663          41.000  
R06  19626735.594   104731940.701        -666.966          35.000  
R07  20331628.606   108836799.195        3220.940          39.000  
R21  20873271.135   111697089.948        1224.629          38.000  
> 2020  6 15  8 16  0.0000090  0 34
C01  37486373.923   195201405.082         170.218          34.000  
C03  36037592.994   187657237.414         173.660          35.000  
C06  38549796.831   200738941.234        1676.757          30.000  
C07  37565383.926   195612844.642       -1292.568          33.000  
C08  37382313.863   194659513.536          -8.039          33.000  
C09  40165935.102   209154585.572        1343.567          27.000  
C10  36804514.865   191650772.537       -1044.847          34.000  
C12  23530457.004   122529200.941        2152.192          26.000  
C13  37311823.062   194292500.434         -72.400          31.000  
C16  39274846.689   204514455.464        1776.391          30.000  
C19  25307135.934   131780915.836       -2717.901          32.000  
C21  22800318.768   118727249.845        2409.485          40.000  
C22  22144583.924   115312676.163        -555.435          41.000  
C26  26015873.186   135471489.107       -1640.871          31.000  
C35  23514824.925   122447903.786        -766.271          36.000  
E09                                                                                                                                  23700857.538    93007268.724        2116.937          38.000  
E12                                                                                                                                  24133571.076    94705317.267        -398.382          34.000  
E19                                                                                                                                  27304662.076   107149360.877       -1222.802          29.000  
E24                                                                                                                                  24667243.922    96799559.082       -1778.656          36.000  
E25                                                                                                                                  25749545.061   101046745.323        -686.956          35.000  
G02  22537180.734   118433670.6811        791.207          30.000  
G04  24996205.287   131355995.698       -1431.160          31.000  
G05  21652876.326   113786669.344        2502.438          41.000  
G06  21732642.105   114205805.280        -375.708          40.000    21732643.004    85283566.194        -280.802          42.000  
G09  22912736.443   120407241.955          12.830          37.000    22912737.642    89914515.191          10.217          38.000  
G17  21400328.761   112459502.877        -909.824          41.000  
G19  20622724.085   108373158.312        -260.059          41.000  
G28  23662005.335   124344708.855       -3211.121          30.000  
J01  38039215.799   199897438.961        -522.137          41.000    38039217.298   149274080.262        -390.628          40.000  
J02  36895470.997   193887030.130        -446.653          32.000    36895478.192   144785793.253        -334.533          35.000  
J03  37965007.272   199507476.261        1272.916          40.000    37965009.371   148982870.173         950.781          41.000  
R06  19626950.545   104733088.429        -668.139          35.000  
R07  20331119.859   108834075.680        3220.220          39.000  
R21  20873138.927   111696382.694        1225.765          38.000  
> 2020  6 15  8 16  1.0000090  0 37
C01  37486340.646   195201234.693         170.302          34.000  
C02  37118108.868   193283745.2951        203.268          31.000  
C03  36037559.717   187657063.904         173.161          36.000  
C06  38549473.955   200737263.970        1677.505          32.000  
C07  37565631.854   195614137.124       -1292.541          33.000  
C08  37382315.961   194659521.669          -8.468          33.000  
C09  40165677.580   209153242.252        1342.998          27.000  
C10  36804715.126   191651817.404       -1044.876          34.000  
C12  23530043.290   122527049.447        2151.131          25.000  
C13  37311836.853   194292572.556         -72.387          32.000  
C16  39274505.526   204512679.421        1776.347          30.000  
C19  25307658.173   131783633.743       -2718.769          32.000  
C21  22799856.188   118724840.634        2408.895          40.000  
C22  22144690.949   115313231.408        -555.648          41.000  
C26  26016188.867   135473129.919       -1640.960          32.000  
C34  25763046.214   134154834.0841       2523.016          20.000  
C35  23514971.524   122448669.853        -766.547          36.000  
E04                                                                                                                                  24496058.831    96127809.4901        610.657          40.000  
E09                                                                                                                                  23700318.211    93005152.021        2117.110          38.000  
E12                                                                                                                                  24133672.706    94705715.594        -398.882          34.000  
E19                                                                                                                                  27304973.860   107150583.953       -1223.292          28.000  
E24                                                                                                                                  24667696.909    96801337.330       -1778.513          36.000  
E25                                                                                                                                  25749720.739   101047432.945        -688.521          35.000  
G02  22537031.438   118432879.852         790.528          30.000  
G04  24996478.098   131357427.233       -1431.567          31.000  
G05  21652401.754   113784166.406        2503.715          41.000  
G06  21732712.256   114206180.949        -375.927          40.000    21732714.655    85283847.236        -281.077          42.000  
G09  22912733.445   120407228.854          14.114          38.000    22912734.944    89914505.213           9.980          38.000  
G17  21400502.341   112460412.630        -910.625          41.000  
G19  20622771.752   108373418.726        -260.502          41.000  
G28  23662615.112   124347919.918       -3210.670          31.000  
J01  38039315.930   199897961.499        -522.976          41.000    38039316.529   149274470.842        -390.216          41.000  
J02  36895556.438   193887477.022        -447.033          33.000    36895563.333   144786127.035        -333.230          35.000  
J03  37964765.939   199506203.053        1273.500          41.000    37964766.839   148981919.200         951.292          42.000  
R06  19627075.558   104733757.105        -669.546          36.000  
R07  20330519.075   108830860.382        3220.197          39.000  
R21  20872918.879   111695205.113        1225.417          38.000  
> 2020  6 15  8 16  2.0000090  0 35
C01  37486308.269   195201064.182         170.534          34.000  
C03  36037527.639   187656891.057         172.239          36.000  
C06  38549151.977   200735586.471        1677.630          31.000  
C07  37565880.682   195615429.740       -1292.777          34.000  
C08  37382317.460   194659530.068          -8.165          33.000  
C09  40165420.958   209151900.359        1341.946          27.000  
C10  36804915.687   191652861.967       -1044.556          34.000  
C12  23529631.375   122524898.797        2150.090          26.000  
C13  37311850.044   194292644.733         -72.246          32.000  
C16  39274165.261   204510903.023        1776.654          30.000  
C19  25308180.711   131786352.676       -2719.333          32.000  
C21  22799394.807   118722431.381        2408.956          40.000  
C22  22144798.575   115313786.566        -555.054          41.000  
C26  26016504.549   135474770.809       -1640.656          32.000  
C35  23515122.619   122449436.389        -767.136          37.000  
E04                                                                                                                                  24495902.639    96127199.005         610.370          40.000  
E09                                                                                                                                  23699778.585    93003034.965        2117.344          38.000  
E12                                                                                                                                  24133774.635    94706114.757        -398.913          34.000  
E19                                                                                                                                  27305285.944   107151807.525       -1223.429          29.000  
E24                                                                                                                                  24668150.195    96803117.093       -1780.074          36.000  
E25                                                                                                                                  25749896.118   101048121.175        -688.173          35.000  
G02  22536882.441   118432089.208         790.464          30.000  
G04  24996750.010   131358859.138       -1432.238          30.000  
G05  21651924.185   113781663.809        2501.820          41.000  
G06  21732785.406   114206557.084        -375.880          40.000    21732786.005    85284127.921        -280.670          42.000  
G09  22912727.749   120407215.521          13.408          37.000    22912732.845    89914495.855           8.507          39.000  
G17  21400675.621   112461323.271        -910.650          41.000  
G19  20622821.218   108373679.583        -260.901          41.000  
G28  23663225.490   124351130.792       -3210.843          30.000  
J01  38039413.962   199898483.915        -522.157          40.000    38039415.760   149274860.894        -390.292          40.000  
J02  36895643.078   193887923.733        -446.939          32.000    36895648.474   144786460.534        -334.127          35.000  
J03  37964521.908   199504929.796        1273.655          41.000    37964524.607   148980968.217         950.918          41.000  
R06  19627200.572   104734426.730        -670.144          35.000  
R07  20329918.890   108827647.336        3219.331          39.000  
R21  20872683.842   111693947.311        1225.685          38.000  
> 2020  6 15  8 16  3.0000092  0 36
C01  37486335.850   195201205.741         170.646          34.000  
C03  36037556.419   187657031.150         172.499          36.000  
C06  38548889.959   200734220.915        1677.425          31.000  
C07  37566189.468   195617034.714       -1292.924          34.000  
C08  37382379.217   194659850.153          -7.574          33.000  
C09  40165225.493   209150870.129        1342.497          27.000  
C10  36805176.207   191654218.184       -1044.200          34.000  
C12  23529278.519   122523060.402        2150.964          26.000  
C13  37311923.793   194293028.662         -71.467          32.000  
C16  39273884.955   204509438.213        1776.584          31.000  
C19  25308765.007   131789384.492       -2719.142          32.000  
C21  22798991.886   118720334.156        2408.959          40.000  
C22  22144965.859   115314654.381        -556.000          41.000  
C24  26126191.414   136045928.4581      -1367.487          17.000  
C26  26016880.488   135476723.979       -1641.111          32.000  
C35  23515328.577   122450516.025        -769.200          36.000  
E04                                                                                                                                  24495807.006    96126824.197         609.736          40.000  
E09                                                                                                                                  23699298.617    93001153.374        2116.399          37.000  
E12                                                                                                                                  24133935.924    94706748.280        -397.945          34.000  
E19                                                                                                                                  27305657.687   107153266.676       -1224.631          28.000  
E24                                                                                                                                  24668663.440    96805130.990       -1778.104          36.000  
E25                                                                                                                                  25750131.455   101049044.331        -687.664          35.000  
G02  22536790.405   118431613.506         791.119          29.000  
G04  24997083.979   131360606.253       -1432.174          30.000  
G05  21651508.972   113779476.937        2502.109          40.000  
G06  21732914.616   114207248.150        -375.966          39.000    21732917.314    85284643.912        -280.702          42.000  
G09  22912784.409   120407517.460          12.446          36.000    22912790.705    89914722.351           8.830          38.000  
G17  21400909.758   112462549.066        -911.240          40.000  
G19  20622930.043   108374256.024        -261.997          40.000  
G28  23663896.425   124354656.753       -3211.116          29.000  
J01  38039574.351   199899320.909        -522.538          40.000    38039575.250   149275486.410        -390.261          40.000  
J02                                                                  36895793.274   144787029.785        -333.977          35.000  
J03  37964340.534   199503971.066        1273.546          40.000    37964342.033   148980252.784         950.675          42.000  
R06  19627384.045   104735416.934        -670.717          35.000  
R07  20329373.568   108824728.193        3218.764          39.000  
R21  20872508.163   111693007.216        1225.498          38.000  
> 2020  6 15  8 16  4.0000092  0 36
C01  37486303.172   195201034.924         170.771          33.000  
C03  36037523.442   187656858.670         171.882          35.000  
C06  38548567.982   200732543.483        1676.856          31.000  
C07  37566438.596   195618327.592       -1292.807          33.000  
C08  37382381.016   194659857.341          -7.440          33.000  
C09  40164967.671   209149527.239        1343.299          27.000  
C10  36805377.068   191655262.645       -1044.710          34.000  
C12  23528860.609   122520908.865        2151.730          26.000  
C13  37311937.883   194293100.269         -71.609          32.000  
C16  39273544.391   204507661.516        1776.272          30.000  
C19  25309286.945   131792103.600       -2719.633          32.000  
C21  22798528.407   118717925.226        2408.512          40.000  
C22  22145073.185   115315210.724        -557.221          41.000  
C26  26017195.570   135478365.359       -1641.172          32.000  
C35  23515476.075   122451284.188        -767.986          36.000  
E04                                                                                                                                  24495651.413    96126214.679         609.958          39.000  
E09                                                                                                                                  23698759.290    92999036.614        2116.351          37.000  
E12                                                                                                                                  24134037.553    94707146.253        -397.793          33.000  
E19                                                                                                                                  27305970.070   107154490.676       -1223.525          27.000  
E24                                                                                                                                  24669116.726    96806909.732       -1779.670          35.000  
E25                                                                                                                                  25750306.534   101049732.366        -689.084          34.000  
G02  22536639.309   118430822.220         791.386          30.000  
G04  24997357.989   131362038.756       -1432.856          31.000  
G05  21651031.703   113776974.822        2501.399          41.000  
G06  21732985.667   114207623.993        -376.095          39.000    21732988.665    85284924.367        -280.476          41.000  
G09  22912787.108   120407505.738          10.080          37.000    22912788.906    89914714.231           7.427          38.000  
G12  22796175.936   119794723.1651       1739.389          32.000  
G17  21401082.439   112463460.626        -911.847          41.000  
G19  20622981.907   108374517.443        -261.366          41.000  
G28  23664508.901   124357867.833       -3211.182          30.000  
J01  38039674.781   199899843.703        -522.641          41.000    38039674.481   149275876.688        -390.283          40.000  
J02  36895871.220   193889132.5691       -447.092          32.000    36895878.115   144787362.976        -333.355          34.000  
J03  37964100.100   199502697.274        1273.716          41.000    37964099.501   148979301.923         951.211          41.000  
R06  19627509.058   104736088.206        -671.638          35.000  
R07  20328770.685   108821500.770        3218.283          39.000  
R21  20872283.319   111691803.846        1224.931          38.000  
> 2020  6 15  8 16  5.0000095  0 36
C01  37486359.234   195201332.213         170.832          33.000  
C03  36037580.102   187657154.547         172.528          35.000  
C06  38548335.942   200731334.657        1677.188          31.000  
C07  37566776.462   195620088.718       -1292.704          33.000  
C08  37382472.453   194660332.596          -7.438          33.000  
C09  40164799.788   209148652.395        1343.258          27.000  
C10  36805667.567   191656775.965       -1045.683          35.000  
C12  23528534.734   122519225.480        2151.772          26.000  
C13  37312041.012   194293640.121         -71.644          32.000  
C16  39273293.764   204506353.500        1775.750          30.000  
C19  25309899.421   131795291.576       -2719.758          32.000  
C21  22798157.564   118715985.220        2408.090          39.000  
C22  22145270.448   115316236.209        -558.136          41.000  
C26  26017601.489   135480474.595       -1640.326          32.000  
C34  25761269.944   134145523.7381       2524.504          19.000  
C35  23515715.009   122452520.474        -768.643          36.000  
E04                                                                                                                                  24495586.059    96125957.676         609.286          39.000  
E09                                                                                                                                  23698309.901    92997273.135        2116.804          37.000  
E12                                                                                                                                  24134228.821    94707897.296        -398.539          33.000  
E19                                                                                                                                  27306372.092   107156068.252       -1225.166          28.000  
E24                                                                                                                                  24669659.950    96809042.125       -1779.628          35.000  
E25                                                                                                                                  25750571.850   101050774.475        -689.480          34.000  
G02  22536577.552   118430503.390         791.439          29.000  
G04  24997721.338   131363944.273       -1433.573          30.000  
G05  21650647.669   113774946.481        2501.180          40.000  
G06  21733147.255   114208472.867        -376.097          39.000    21733149.953    85285558.042        -281.389          42.000  
G09  22912875.846   120407968.380          10.699          36.000    22912876.446    89915059.883           7.115          38.000  
G17  21401345.657   112464844.966        -911.520          40.000  
G19  20623120.711   108375252.054        -261.972          40.000  
G28  23665211.315   124361551.529       -3211.142          31.000  
J01  38039863.351   199900839.142        -523.001          40.000    38039863.650   149276620.111        -390.828          40.000  
J02  36896045.699   193890052.298        -446.971          31.000    36896053.194   144788049.324        -333.805          34.000  
J03  37963947.806   199501896.228        1274.123          40.000    37963947.206   148978704.159         950.145          41.000  
R06  19627724.009   104737239.640        -671.892          35.000  
R07  20328263.736   108818786.691        3216.879          39.000  
R21  20872148.412   111691082.188        1224.745          38.000  
> 2020  6 15  8 16  6.0000095  0 34
C01  37486326.556   195201161.070         171.172          31.000  
C03  36037546.526   187656981.978         172.528          34.000  
C06  38548014.265   200729657.335        1677.386          29.000  
C07  37567025.589   195621381.301       -1292.617          32.000  
C08  37382473.952   194660340.140          -7.795          32.000  
C09  40164541.966   209147309.031        1343.159          25.000  
C10  36805868.727   191657821.949       -1046.440          34.000  
C12  23528119.822   122517072.738        2152.689          25.000  
C13  37312056.001   194293712.130         -72.190          31.000  
C16  39272953.500   204504577.741        1775.746          30.000  
C19  25310421.660   131798011.257       -2719.485          31.000  
C21  22797695.884   118713577.521        2407.608          39.000  
C22  22145377.774   115316794.205        -558.479          40.000  
C26  26017916.271   135482114.767       -1639.514          31.000  
C35  23515861.608   122453288.637        -768.646          35.000  
E04                                                                                                                                  24495431.366    96125349.169         608.253          39.000  
E09                                                                                                                                  23697770.575    92995156.720        2116.128          36.000  
E12                                                                                                                                  24134330.151    94708296.227        -399.436          32.000  
E19                                                                                                                                  27306685.075   107157292.990       -1225.434          27.000  
E24                                                                                                                                  24670113.536    96810821.129       -1779.710          34.000  
E25                                                                                                                                  25750747.528   101051463.656        -689.215          34.000  
G04  24997995.348   131365377.932       -1433.939          29.000  
G05  21650169.200   113772446.073        2500.247          40.000  
G06  21733217.407   114208849.461        -376.709          37.000    21733221.604    85285839.148        -280.685          41.000  
G09  22912868.351   120407958.034           9.170          35.000    22912874.347    89915052.159           7.315          38.000  
G17  21401520.136   112465757.010        -912.510          39.000  
G19  20623168.378   108375514.273        -263.302          39.000  
G28  23665822.592   124364762.696       -3211.237          30.000  
J01  38039960.184   199901362.473        -522.810          39.000    38039963.481   149277011.048        -391.153          39.000  
J02  36896130.241   193890498.847        -446.561          31.000    36896137.735   144788382.969        -333.085          34.000  
J03  37963702.875   199500622.784        1273.062          39.000    37963704.674   148977753.700         951.204          40.000  
R06  19627847.824   104737912.193        -672.994          35.000  
R07  20327659.354   108815551.464        3216.525          40.000  
R21  20871919.371   111689856.369        1224.712          39.000  
> 2020  6 15  8 16  7.0000097  0 37
C01  37486354.137   195201301.829         171.367          32.000  
C03  36037573.807   187657121.628         172.528          34.000  
C06  38547752.846   200728292.390        1676.902          30.000  
C07  37567334.376   195622986.510       -1292.831          32.000  
C08  37382534.510   194660660.032          -7.432          32.000  
C09  40164344.103   209146279.431        1340.591          25.000  
C10  36806128.947   191659180.121       -1045.963          33.000  
C12  23527764.568   122515233.334        2151.872          24.000  
C13  37312129.750   194294096.454         -72.067          31.000  
C16  39272673.794   204503113.976        1775.518          29.000  
C19  25311004.456   131801043.758       -2720.876          31.000  
C21  22797292.962   118711482.386        2406.445          38.000  
C22  22145544.459   115317664.900        -558.497          39.000  
C24  26127392.982   136052156.3021      -1350.396          15.000  
C26  26018290.412   135484066.621       -1640.257          31.000  
C34  25760360.973   134140784.2571       2526.616          17.000  
C35  23516069.364   122454369.404        -767.762          35.000  
E04                                                                                                                                  24495336.032    96124976.617         608.164          39.000  
E09                                                                                                                                  23697291.806    92993275.909        2115.963          37.000  
E12                                                                                                                                  24134492.039    94708930.740        -399.415          33.000  
E19                                                                                                                                  27307057.118   107158753.649       -1225.463          27.000  
E24                                                                                                                                  24670626.780    96812835.721       -1779.797          35.000  
E25                                                                                                                                  25750983.165   101052388.480        -689.560          34.000  
G02  22536337.418   118429235.5871        791.446          28.000  
G04  24998329.617   131367127.492       -1435.820          29.000  
G05  21649753.987   113770261.151        2500.735          40.000  
G06  21733350.814   114209541.085        -376.602          38.000    21733353.213    85286355.164        -280.516          41.000  
G09  22912927.710   120408263.528           9.582          36.000    22912932.507    89915280.457           7.177          37.000  
G17  21401753.374   112466984.827        -912.910          40.000  
G19  20623279.601   108376092.391        -263.277          40.000  
G28  23666493.527   124368289.025       -3211.290          31.000  
J01  38040120.573   199902200.406        -523.169          40.000    38040122.971   149277637.046        -390.734          39.000  
J02  36896274.441   193891260.318        -446.723          31.000    36896282.535   144788951.498        -333.893          34.000  
J03  37963520.602   199499664.931        1273.079          40.000    37963522.400   148977037.805         951.045          41.000  
R06  19628033.995   104738906.411        -675.086          35.000  
R07  20327117.329   108812650.110        3216.266          39.000  
R21  20871749.988   111688950.158        1224.570          38.000  
> 2020  6 15  8 16  8.0000097  0 37
C01  37486321.160   195201130.248         171.534          33.000  
C02  37118045.012   193283411.6511        203.613          29.000  
C03  36037540.830   187656949.039         172.636          36.000  
C06  38547430.869   200726615.231        1677.270          30.000  
C07  37567582.604   195624279.467       -1292.859          33.000  
C08  37382536.009   194660667.507          -7.456          33.000  
C09  40164087.481   209144938.739        1341.787          27.000  
C10  36806330.408   191660225.872       -1045.764          35.000  
C12  23527347.556   122513081.442        2152.420          27.000  
C13  37312144.140   194294167.776         -71.020          31.000  
C16  39272332.330   204501337.833        1776.220          29.000  
C19  25311527.294   131803764.682       -2721.805          32.000  
C21  22796830.083   118709075.365        2407.214          40.000  
C22  22145651.484   115318223.347        -558.893          40.000  
C26  26018606.693   135485706.794       -1640.109          32.000  
C35  23516219.560   122455138.138        -771.136          36.000  
E04                                                                                                                                  24495180.739    96124368.660         608.268          39.000  
E09                                                                                                                                  23696752.180    92991160.079        2115.522          37.000  
E12                                                                                                                                  24134593.968    94709330.656        -400.449          33.000  
E19                                                                                                                                  27307368.902   107159979.456       -1226.533          28.000  
E24                                                                                                                                  24671080.366    96814614.905       -1779.485          35.000  
E25                                                                                                                                  25751158.544   101053078.159        -689.905          34.000  
G02  22536187.522   118428443.936         791.628          28.000  
G04  24998603.627   131368563.406       -1435.729          29.000  
G05  21649278.516   113767760.857        2499.679          40.000  
G06  21733423.364   114209917.192        -376.691          38.000    21733424.863    85286635.843        -281.219          41.000  
G09  22912927.111   120408254.440           8.285          36.000    22912930.708    89915273.382           6.351          38.000  
G12  22795002.248   119788556.9591       1737.283          33.000  
G17  21401926.654   112467898.079        -913.214          41.000  
G19  20623330.266   108376355.972        -263.841          40.000  
G28  23667104.804   124371500.161       -3211.199          31.000  
J01  38040221.603   199902723.580        -522.849          40.000    38040222.202   149278027.394        -390.411          40.000  
J02  36896358.982   193891706.821        -446.578          32.000    36896367.376   144789285.532        -333.838          35.000  
J03  37963276.870   199498391.289        1272.940          40.000    37963280.168   148976086.433         951.049          41.000  
R06  19628157.809   104739581.622        -675.422          35.000  
R07  20326521.342   108809459.811        3215.424          39.000  
R21  20871517.949   111687708.286        1224.708          38.000  
> 2020  6 15  8 16  9.0000100  0 37
C01  37486378.120   195201426.739         171.729          32.000  
C03  36037597.191   187657244.672         172.678          35.000  
C06  38547198.830   200725405.927        1677.553          30.000  
C07  37567920.170   195626040.547       -1292.930          32.000  
C08  37382627.146   194661143.106          -6.966          32.000  
C09  40163919.297   209144064.876        1342.813          25.000  
C10  36806620.307   191661739.782       -1045.012          34.000  
C12  23527021.982   122511397.691        2151.078          26.000  
C13  37312248.768   194294707.216         -71.276          32.000  
C16  39272079.305   204500030.017        1775.742          29.000  
C19  25312139.470   131806954.502       -2721.086          32.000  
C21  22796454.743   118707137.033        2406.205          39.000  
C22  22145847.249   115319250.924        -559.298          40.000  
C24  26128006.957   136055333.0541      -1355.068          12.000  
C26  26019010.514   135487814.910       -1639.672          31.000  
C35  23516453.698   122456375.974        -768.110          36.000  
E04                                                                                                                                  24495115.684    96124113.267         608.786          39.000  
E09                                                                                                                                  23696303.391    92989397.150        2116.319          37.000  
E12                                                                                                                                  24134785.236    94710082.938        -398.953          33.000  
E19                                                                                                                                  27307771.823   107161560.853       -1226.916          28.000  
E24                                                                                                                                  24671623.590    96816746.987       -1779.407          35.000  
E25                                                                                                                                  25751424.160   101054121.248        -690.192          35.000  
G02  22536128.163   118428125.030         791.364          28.000  
G04  24998967.275   131370472.245       -1437.134          29.000  
G05  21648893.283   113765734.332        2498.565          40.000  
G06  21733581.954   114210766.454        -375.620          38.000    21733586.451    85287269.968        -280.546          41.000  
G09  22913014.650   120408718.024           8.446          36.000    22913018.847    89915619.799           6.264          38.000  
G12  22794762.414   119787292.535        1736.578          32.000  
G17  21402188.373   112469284.037        -913.967          40.000  
G19  20623470.568   108377092.293        -263.733          40.000  
G28  23667806.618   124375184.071       -3211.489          29.000  
J01  38040411.971   199903719.442        -523.314          39.000    38040411.671   149278771.022        -390.492          40.000  
J02  36896533.461   193892626.242        -446.887          31.000    36896542.755   144789972.100        -333.531          35.000  
J03  37963125.775   199497590.655        1273.259          40.000    37963127.873   148975488.843         950.640          41.000  
R06  19628372.760   104740736.766        -675.082          34.000  
R07  20326012.894   108806738.253        3214.848          39.000  
R21  20871381.243   111686976.691        1225.583          38.000  
> 2020  6 15  8 16 10.0000100  0 35
C01  37486345.443   195201254.904         171.481          33.000  
C03  36037563.914   187657071.929         172.719          35.000  
C06  38546876.852   200723728.396        1677.650          30.000  
C07  37568168.098   195627333.378       -1293.116          33.000  
C08  37382627.745   194661149.826          -6.536          32.000  
C09  40163661.776   209142721.684        1342.869          26.000  
C10  36806821.168   191662784.884       -1045.594          34.000  
C12  23526608.868   122509245.844        2151.787          26.000  
C13  37312262.858   194294778.406         -70.641          31.000  
C16  39271736.642   204498254.259        1775.801          30.000  
C19  25312661.709   131809675.373       -2720.326          32.000  
C21  22795993.362   118704730.801        2406.037          39.000  
C22  22145954.275   115319810.528        -560.340          40.000  
C26  26019324.397   135489453.832       -1639.002          31.000  
C35  23516599.397   122457145.059        -770.245          36.000  
E04                                                                                                                                  24494960.991    96123505.257         607.504          39.000  
E09                                                                                                                                  23695764.364    92987282.312        2115.549          37.000  
E12                                                                                                                                  24134885.966    94710481.171        -398.535          34.000  
E19                                                                                                                                  27308084.806   107162787.996       -1227.562          28.000  
E24                                                                                                                                  24672077.176    96818526.827       -1779.225          35.000  
E25                                                                                                                                  25751600.138   101054811.614        -690.411          35.000  
G02  22535977.667   118427333.479         791.441          29.000  
G05  21648419.011   113763235.023        2498.736          40.000  
G06  21733655.403   114211142.670        -376.554          38.000    21733657.802    85287550.712        -280.910          41.000  
G09  22913015.250   120408710.021           7.341          37.000    22913017.648    89915614.136           5.660          38.000  
G12  22794432.343   119785556.204        1735.932          32.000  
G17  21402365.251   112470198.442        -914.496          40.000  
G19  20623521.533   108377356.691        -264.850          40.000  
G28  23668417.595   124378395.463       -3211.437          29.000  
J01  38040510.303   199904242.680        -524.073          40.000    38040511.202   149279161.454        -390.382          39.000  
J02  36896618.602   193893073.098        -447.435          31.000    36896627.596   144790305.296        -332.209          34.000  
J03  37962885.042   199496317.113        1273.529          40.000    37962885.641   148974538.044         950.863          41.000  
R06  19628499.573   104741412.415        -677.361          34.000  
R07  20325414.508   108803534.366        3213.905          39.000  
R21  20871152.202   111685750.800        1224.493          37.000  
> 2020  6 15  8 16 11.0000102  0 37
C01  37486372.724   195201395.517         171.589          32.000  
C03  36037590.895   187657211.392         172.654          35.000  
C06  38546615.134   200722362.593        1677.687          31.000  
C07  37568476.885   195628938.823       -1293.295          33.000  
C08  37382688.303   194661468.460          -6.365          33.000  
C09  40163463.313   209141690.376        1343.301          26.000  
C10  36807081.688   191664142.685       -1045.652          34.000  
C12  23526255.112   122507405.562        2152.297          25.000  
C13  37312337.806   194295161.427         -70.776          31.000  
C16  39271455.137   204496790.525        1775.985          29.000  
C19  25313244.505   131812707.840       -2720.395          32.000  
C21  22795590.741   118702636.928        2405.388          39.000  
C22  22146122.458   115320682.710        -560.236          41.000  
C26  26019698.837   135491404.690       -1638.130          31.000  
C35  23516806.254   122458226.358        -768.685          36.000  
E04                                                                                                                                  24494866.557    96123133.127         607.375          40.000  
E09                                                                                                                                  23695284.996    92985401.750        2115.331          37.000  
E12                                                                                                                                  24135047.554    94711115.023        -397.958          33.000  
E19                                                                                                                                  27308456.249   107164250.140       -1227.074          28.000  
E24                                                                                                                                  24672590.421    96820540.332       -1778.711          35.000  
E25                                                                                                                                  25751836.375   101055737.435        -691.133          35.000  
G02  22535884.732   118426857.104         791.321          28.000  
G04  24999572.256   131373662.7481      -1438.187          29.000  
G05  21648002.300   113761052.258        2497.276          40.000  
G06  21733786.113   114211834.380        -376.683          38.000    21733789.411    85288067.016        -281.322          41.000  
G09  22913074.309   120409017.993           7.206          37.000    22913076.407    89915843.371           6.473          38.000  
G12  22794161.630   119784135.555        1735.373          32.000  
G17  21402598.789   112471428.057        -914.589          40.000  
G19  20623631.557   108377936.845        -265.361          40.000  
G28  23669089.131   124381921.935       -3211.511          29.000  
J01  38040669.493   199905081.427        -523.564          40.000    38040670.991   149279787.194        -391.007          40.000  
J02  36896764.002   193893835.295        -446.853          31.000    36896772.696   144790872.824        -332.414          35.000  
J03  37962702.468   199495358.686        1273.065          41.000    37962703.367   148973822.459         951.118          41.000  
R06  19628684.844   104742410.284        -678.570          35.000  
R07  20324872.484   108800633.333        3213.207          39.000  
R12  23339864.848   124677367.6851        -90.962          31.000  
R21  20870979.522   111684827.283        1223.526          38.000  
> 2020  6 15  8 16 12.0000102  0 36
C01  37486339.747   195201224.051         171.225          32.000  
C03  36037557.318   187657038.579         172.803          34.000  
C06  38546292.257   200720685.387        1677.185          30.000  
C07  37568725.413   195630232.031       -1293.429          33.000  
C08  37382688.303   194661474.965          -6.424          32.000  
C09  40163204.292   209140346.740        1343.998          25.000  
C10  36807282.549   191665188.353       -1045.856          34.000  
C12  23525840.500   122505253.122        2152.479          25.000  
C13  37312351.596   194295232.650         -71.985          31.000  
C16  39271113.674   204495014.340        1776.214          29.000  
C19  25313767.044   131815428.530       -2721.040          31.000  
C21  22795130.559   118700231.736        2405.221          39.000  
C22  22146230.684   115321243.672        -561.577          40.000  
C26  26020013.619   135493042.143       -1637.535          31.000  
C35  23516954.951   122458995.566        -771.002          36.000  
E04                                                                                                                                  24494711.864    96122526.291         606.851          40.000  
E09                                                                                                                                  23694745.669    92983286.016        2116.314          37.000  
E12                                                                                                                                  24135148.884    94711513.727        -399.581          33.000  
E19                                                                                                                                  27308768.633   107165477.082       -1226.510          28.000  
E24                                                                                                                                  24673043.707    96822319.751       -1779.216          35.000  
E25                                                                                                                                  25752012.653   101056428.546        -691.365          35.000  
G02  22535734.236   118426065.609         791.659          28.000  
G05  21647524.730   113758554.390        2497.270          40.000  
G06  21733858.363   114212211.012        -376.140          39.000    21733861.061    85288348.045        -281.161          41.000  
G09  22913071.611   120409010.419           6.790          37.000    22913074.908    89915838.232           4.751          38.000  
G12  22793831.259   119782400.382        1734.818          32.000  
G17  21402774.168   112472342.741        -915.306          40.000  
G19  20623683.721   108378202.161        -265.926          40.000  
G28  23669699.508   124385133.281       -3211.348          29.000  
J01  38040769.323   199905604.724        -523.345          39.000    38040770.822   149280178.265        -391.497          40.000  
J02  36896848.543   193894281.999        -446.397          31.000    36896857.837   144791205.408        -332.863          34.000  
J03  37962460.535   199494085.114        1273.515          41.000    37962461.135   148972871.071         951.384          41.000  
R06  19628811.357   104743088.879        -678.768          35.000  
R07  20324273.198   108797424.902        3212.909          40.000  
R12  23339884.934   124677475.800         -91.644          31.000  
R21  20870748.981   111683593.538        1224.636          38.000  
> 2020  6 15  8 16 13.0000105  0 37
C01  37486396.108   195201521.022         171.263          33.000  
C03  36037613.979   187657334.133         172.709          35.000  
C06  38546059.318   200719476.551        1676.826          30.000  
C07  37569062.979   195631993.871       -1293.516          32.000  
C08  37382780.340   194661950.170          -6.735          32.000  
C09  40163035.809   209139470.938        1343.370          25.000  
C10  36807573.647   191666702.581       -1045.868          34.000  
C12  23525517.623   122503568.676        2153.561          26.000  
C13  37312454.725   194295773.174         -72.475          31.000  
C16  39270861.548   204493705.685        1777.721          29.000  
C19  25314379.520   131818617.837       -2720.946          32.000  
C21  22794757.917   118698294.637        2405.467          39.000  
C22  22146428.547   115322273.834        -562.370          40.000  
C26  26020418.039   135495148.101       -1638.020          31.000  
C35  23517193.885   122460233.776        -769.224          36.000  
E04                                                                                                                                  24494647.109    96122272.362         606.719          40.000  
E09                                                                                                                                  23694296.580    92981522.704        2115.235          38.000  
E12                                                                                                                                  24135340.451    94712265.562        -398.701          33.000  
E19                                                                                                                                  27309170.954   107167056.272       -1225.985          28.000  
E24                                                                                                                                  24673587.231    96824451.990       -1778.758          35.000  
E25                                                                                                                                  25752278.868   101057472.323        -691.209          35.000  
G02  22535673.678   118425746.480         791.809          28.000  
G04  25000206.617   131377012.8211      -1438.370          29.000  
G05  21647139.197   113756529.739        2496.585          39.000  
G06  21734019.052   114213060.225        -376.157          38.000    21734022.649    85288982.115        -280.974          41.000  
G09  22913159.750   120409476.641           5.126          36.000    22913163.647    89916186.382           4.537          38.000  
G12  22793591.125   119781138.445        1734.285          32.000  
G17  21403036.186   112473730.644        -915.122          39.000  
G19  20623823.424   108378941.156        -266.280          39.000  
G28  23670399.823   124388817.207       -3211.357          29.000  
J01  38040957.593   199906600.343        -523.182          39.000    38040960.291   149280921.870        -390.690          40.000  
J02  36897021.524   193895200.427        -445.803          30.000    36897032.916   144791891.610        -333.811          34.000  
J03  37962309.140   199493284.312        1272.952          40.000    37962308.840   148972273.439         950.036          41.000  
R06  19629026.608   104744248.241        -680.139          35.000  
R07  20323764.750   108794703.000        3211.567          40.000  
R12  23339994.058   124678058.065         -92.328          32.000  
R21  20870615.274   111682877.917        1223.592          38.000  
> 2020  6 15  8 16 14.0000105  0 35
C01  37486362.831   195201349.758         171.086          32.000  
C03  36037580.402   187657161.520         172.453          34.000  
C06  38545737.341   200717799.387        1677.179          30.000  
C07  37569311.807   195633287.489       -1293.715          32.000  
C08  37382780.939   194661956.950          -6.303          32.000  
C09  40162774.690   209138127.633        1342.626          24.000  
C10  36807774.808   191667748.709       -1046.703          34.000  
C13  37312468.815   194295845.407         -71.794          31.000  
C16  39270518.286   204491928.001        1777.589          28.000  
C19  25314901.458   131821338.760       -2721.509          31.000  
C21  22794295.937   118695889.761        2404.902          38.000  
C22  22146535.273   115322836.005        -562.024          40.000  
C26  26020731.922   135496786.059       -1638.082          30.000  
C35  23517340.784   122461003.704        -769.799          36.000  
E04                                                                                                                                  24494492.416    96121666.157         605.355          40.000  
E09                                                                                                                                  23693757.553    92979407.707        2114.879          37.000  
E12                                                                                                                                  24135442.381    94712663.831        -398.112          33.000  
E19                                                                                                                                  27309483.938   107168281.880       -1225.712          28.000  
E24                                                                                                                                  24674041.117    96826231.615       -1780.406          35.000  
E25                                                                                                                                  25752455.146   101058163.548        -691.487          35.000  
G02  22535524.681   118424954.644         791.661          28.000  
G04  25000480.328   131378450.899       -1438.266          29.000  
G05  21646665.825   113754033.414        2495.832          39.000  
G06  21734090.702   114213435.997        -375.374          38.000    21734094.599    85289262.937        -280.229          41.000  
G09  22913159.450   120409471.146           6.270          36.000    22913162.748    89916182.135           4.301          38.000  
G12  22793261.354   119779404.471        1733.697          31.000  
G17  21403208.567   112474646.426        -916.676          39.000  
G19  20623874.089   108379206.955        -266.041          39.000  
G28  23671011.700   124392028.513       -3211.278          28.000  
J01  38041056.225   199907123.789        -523.866          39.000    38041059.522   149281312.575        -391.263          40.000  
J02  36897106.665   193895646.304        -446.053          30.000    36897118.057   144792225.430        -334.192          35.000  
J03  37962066.308   199492011.071        1273.970          40.000    37962066.608   148971322.899         950.477          41.000  
R06  19629153.120   104744928.865        -681.107          35.000  
R07  20323160.069   108791466.983        3212.081          39.000  
R21  20870384.733   111681643.934        1224.011          38.000  
> 2020  6 15  8 16 15.0000108  0 35
C01  37486420.091   195201646.865         171.123          33.000  
C03  36037637.363   187657457.490         172.234          35.000  
C06  38545505.302   200716590.161        1677.390          30.000  
C07  37569650.272   195635049.289       -1293.394          33.000  
C08  37382871.477   194662431.436          -6.257          32.000  
C09  40162605.607   209137252.746        1343.427          25.000  
C10  36808066.206   191669263.724       -1046.889          34.000  
C12  23524777.136   122499731.3481       2151.377          25.000  
C13  37312572.544   194296385.290         -71.026          31.000  
C16  39270266.760   204490618.632        1777.268          29.000  
C19  25315513.635   131824528.232       -2720.703          32.000  
C21  22793923.295   118693953.632        2404.166          38.000  
C22  22146734.035   115323866.453        -562.449          40.000  
C26  26021136.042   135498892.130       -1637.933          31.000  
C35  23517579.419   122462242.187        -770.479          36.000  
E04                                                                                                                                  24494427.960    96121413.767         606.050          39.000  
E09                                                                                                                                  23693308.464    92977645.123        2115.329          37.000  
E12                                                                                                                                  24135633.948    94713414.506        -398.495          33.000  
E19                                                                                                                                  27309885.959   107169860.396       -1227.733          28.000  
E24                                                                                                                                  24674584.041    96828364.001       -1778.487          35.000  
E25                                                                                                                                  25752721.062   101059207.911        -691.170          35.000  
G02  22535464.123   118424635.653         791.548          29.000  
G04  25000844.575   131380361.356       -1438.547          30.000  
G05  21646282.690   113752009.511        2496.925          40.000  
G06  21734254.389   114214284.258        -375.868          38.000    21734255.888    85289896.608        -281.085          41.000  
G09  22913247.589   120409938.941           4.660          36.000    22913251.786    89916531.185           2.999          39.000  
G17  21403475.982   112476035.635        -916.735          39.000  
G19  20624014.992   108379946.098        -266.630          40.000  
G28  23671711.115   124395712.321       -3211.343          28.000  
J01  38041248.692   199908119.728        -522.922          39.000    38041248.991   149282056.602        -390.804          40.000  
J02  36897282.643   193896565.059        -445.988          31.000    36897293.435   144792912.763        -334.303          35.000  
J03  37961913.114   199491210.147        1273.108          40.000    37961913.714   148970725.114         951.072          41.000  
R06  19629368.371   104746090.089        -681.039          36.000  
R07  20322654.619   108788761.223        3211.528          39.000  
R21  20870245.330   111680898.098        1224.185          38.000  
> 2020  6 15  8 16 16.0000108  0 36
C01  37486387.114   195201475.648         171.081          33.000  
C03  36037604.685   187657285.083         172.533          35.000  
C06  38545183.325   200714913.162        1677.188          31.000  
C07  37569899.100   195636342.558       -1293.138          33.000  
C08  37382872.076   194662437.733          -6.408          33.000  
C09  40162348.685   209135909.733        1343.623          25.000  
C10  36808267.367   191670310.421       -1046.676          34.000  
C12  23524364.022   122497580.189        2150.949          26.000  
C13  37312586.634   194296455.983         -70.782          32.000  
C16  39269925.296   204488841.720        1777.048          30.000  
C19  25316036.173   131827249.327       -2721.285          32.000  
C21  22793462.214   118691550.238        2402.930          39.000  
C22  22146841.061   115324429.363        -562.739          41.000  
C26  26021450.225   135500529.708       -1637.354          31.000  
C35  23517727.816   122463012.903        -770.386          36.000  
E04                                                                                                                                  24494273.867    96120808.210         605.188          39.000  
E09                                                                                                                                  23692769.437    92975530.061        2114.705          37.000  
E12                                                                                                                                  24135735.278    94713812.601        -398.703          33.000  
E19                                                                                                                                  27310198.943   107171088.490       -1228.029          28.000  
E24                                                                                                                                  24675037.627    96830142.289       -1779.130          35.000  
E25                                                                                                                                  25752897.640   101059899.068        -690.963          34.000  
G02  22535313.927   118423843.987         791.598          29.000  
G04  25001117.387   131381799.763       -1438.573          31.000  
G05  21645806.620   113749513.002        2496.596          40.000  
G06  21734324.840   114214660.146        -376.403          39.000    21734327.238    85290177.483        -281.019          41.000  
G09  22913249.388   120409934.162           3.562          37.000    22913251.186    89916527.639           3.258          38.000  
G12  22792689.949   119776410.7861       1732.624          32.000  
G17  21403648.962   112476952.790        -917.122          40.000  
G19  20624063.858   108380213.312        -267.990          41.000  
G28  23672323.891   124398923.512       -3211.205          29.000  
J01  38041348.822   199908642.902        -523.158          40.000    38041348.223   149282446.972        -391.012          40.000  
J02  36897367.484   193897011.001        -445.844          32.000    36897378.277   144793246.692        -333.680          34.000  
J03  37961668.784   199489936.619        1273.577          41.000    37961671.482   148969774.121         951.137          40.000  
R06  19629495.183   104746771.753        -682.006          36.000  
R07  20322053.535   108785543.174        3210.786          39.000  
R21  20870014.190   111679660.663        1224.291          38.000  
> 2020  6 15  8 16 17.0000110  0 36
C01  37486414.395   195201616.917         170.769          33.000  
C03  36037634.065   187657425.010         171.793          35.000  
C06  38544921.606   200713548.239        1676.880          31.000  
C07  37570207.287   195637948.054       -1293.319          33.000  
C08  37382933.534   194662756.177          -6.253          32.000  
C09  40162152.321   209134877.968        1343.851          25.000  
C10  36808528.786   191671669.517       -1047.232          34.000  
C12  23524010.866   122495740.908        2151.443          26.000  
C13  37312660.683   194296838.529         -70.227          31.000  
C16  39269644.691   204487376.841        1776.994          30.000  
C19  25316618.969   131830282.891       -2722.418          32.000  
C21  22793062.591   118689459.369        2404.002          39.000  
C22  22147009.844   115325304.793        -564.176          40.000  
C26  26021824.666   135502479.327       -1637.772          30.000  
C35  23517938.270   122464095.883        -771.647          36.000  
E04                                                                                                                                  24494179.732    96120438.295         605.172          39.000  
E09                                                                                                                                  23692290.668    92973650.515        2114.843          37.000  
E12                                                                                                                                  24135897.166    94714446.943        -399.600          32.000  
E19                                                                                                                                  27310572.184   107172551.624       -1227.707          28.000  
E24                                                                                                                                  24675551.171    96832157.015       -1779.054          35.000  
E25                                                                                                                                  25753133.876   101060825.603        -691.716          35.000  
G02  22535222.490   118423367.413         791.702          29.000  
G04  25001450.456   131383553.993       -1439.919          30.000  
G05  21645393.206   113747332.458        2495.314          41.000  
G06  21734456.449   114215351.457        -376.998          39.000    21734459.147    85290693.705        -281.308          41.000  
G09  22913310.245   120410245.384           3.765          37.000    22913310.245    89916759.650           3.159          38.000  
G12  22792420.735   119774993.472        1732.062          32.000  
G17  21403883.700   112478184.844        -916.903          40.000  
G19  20624176.580   108380796.037        -267.841          41.000  
G28  23672994.227   124402449.707       -3211.207          29.000  
J01  38041508.312   199909480.904        -523.575          40.000    38041508.312   149283073.152        -390.285          40.000  
J02  36897511.384   193897771.898        -446.189          32.000    36897522.777   144793815.234        -333.007          35.000  
J03  37961488.009   199488978.087        1273.312          40.000    37961489.508   148969058.270         950.979          40.000  
R06  19629683.453   104747774.434        -682.799          36.000  
R07  20321509.712   108782631.688        3209.871          40.000  
R21  20869843.308   111678747.373        1224.120          38.000  
> 2020  6 15  8 16 18.0000110  0 36
C01  37486381.718   195201446.040         170.630          33.000  
C03  36037602.287   187657253.300         171.731          35.000  
C06  38544599.929   200711870.770        1677.804          31.000  
C07  37570455.815   195639241.374       -1293.398          33.000  
C08  37382934.733   194662762.376          -5.816          33.000  
C09  40161894.499   209133534.193        1343.581          25.000  
C10  36808730.546   191672716.756       -1046.963          34.000  
C12  23523595.654   122493589.258        2151.610          26.000  
C13  37312674.173   194296909.061         -70.824          31.000  
C16  39269304.426   204485600.218        1775.936          29.000  
C19  25317142.707   131833004.676       -2722.066          32.000  
C21  22792601.211   118687056.159        2403.218          39.000  
C22  22147118.969   115325868.509        -564.037          41.000  
C26  26022139.148   135504116.130       -1636.690          31.000  
C35  23518085.768   122464866.979        -771.960          36.000  
E04                                                                                                                                  24494025.639    96119833.196         604.767          40.000  
E09                                                                                                                                  23691751.941    92971535.705        2113.941          37.000  
E12                                                                                                                                  24135998.796    94714845.618        -398.498          33.000  
E19                                                                                                                                  27310885.467   107173779.378       -1226.913          28.000  
E24                                                                                                                                  24676005.057    96833936.104       -1778.992          36.000  
E25                                                                                                                                  25753310.454   101061517.793        -692.514          35.000  
G02  22535071.395   118422575.569         791.809          29.000  
G04  25001723.867   131384993.635       -1439.497          31.000  
G05  21644918.335   113744837.195        2494.827          41.000  
G06  21734527.200   114215728.093        -377.102          39.000    21734531.097    85290974.738        -280.666          42.000  
G09  22913307.547   120410241.727           2.797          37.000    22913309.946    89916756.806           2.853          39.000  
G12  22792092.463   119773261.551        1731.659          31.000  
G17  21404057.279   112479101.926        -917.848          40.000  
G19  20624226.645   108381063.556        -268.208          41.000  
G28  23673606.104   124405660.792       -3211.200          29.000  
J01  38041605.744   199910004.417        -523.537          40.000    38041607.843   149283463.826        -390.863          40.000  
J02  36897596.226   193898218.272        -446.900          32.000    36897607.918   144794148.416        -333.779          35.000  
J03  37961245.776   199487704.887        1273.436          40.000    37961247.275   148968107.125         950.998          41.000  
R06  19629813.263   104748457.486        -683.183          36.000  
R07  20320912.825   108779437.313        3208.272          39.000  
R21  20869618.164   111677542.562        1223.054          38.000  
> 2020  6 15  8 16 19.0000113  0 35
C01  37486438.679   195201743.586         170.640          32.000  
C03  36037659.547   187657549.851         171.838          35.000  
C06  38544367.889   200710661.051        1678.411          31.000  
C07  37570793.381   195641003.275       -1293.793          33.000  
C08  37383025.870   194663236.213          -5.130          33.000  
C09  40161726.615   209132659.102        1344.204          24.000  
C10  36809021.345   191674231.900       -1046.843          34.000  
C13  37312778.201   194297447.932         -70.851          31.000  
C16  39269053.800   204484292.323        1776.142          29.000  
C19  25317755.483   131836194.956       -2722.112          32.000  
C21  22792230.367   118685121.481        2403.859          39.000  
C22  22147315.632   115326900.813        -563.870          41.000  
C26  26022543.568   135506221.303       -1637.101          31.000  
C35  23518321.105   122466106.280        -770.478          36.000  
E04                                                                                                                                  24493961.483    96119581.272         604.896          40.000  
E09                                                                                                                                  23691302.852    92969774.081        2114.786          37.000  
E12                                                                                                                                  24136190.363    94715597.602        -398.859          33.000  
E19                                                                                                                                  27311288.688   107175360.625       -1229.560          28.000  
E24                                                                                                                                  24676548.281    96836068.287       -1779.445          35.000  
E25                                                                                                                                  25753577.269   101062563.500        -693.472          35.000  
G02  22535009.038   118422256.757         791.031          29.000  
G04  25002087.515   131386906.036       -1440.121          31.000  
G05  21644534.301   113742814.867        2495.126          41.000  
G06  21734689.687   114216577.165        -376.246          39.000    21734692.685    85291608.605        -281.271          42.000  
G09  22913398.384   120410711.310           2.649          37.000    22913398.984    89917107.255           2.400          39.000  
G12  22791854.128   119772002.359        1731.615          31.000  
G17  21404323.195   112480492.425        -917.951          40.000  
G19  20624369.946   108381804.762        -269.186          41.000  
G28  23674306.419   124409344.613       -3211.489          29.000  
J01  38041796.712   199911000.485        -523.875          40.000    38041797.911   149284207.520        -390.600          40.000  
J02  36897771.904   193899137.408        -446.286          32.000    36897782.996   144794835.092        -333.395          35.000  
J03  37961094.681   199486904.308        1273.459          40.000    37961094.981   148967509.013         951.161          41.000  
R06  19630032.711   104749621.203        -685.295          35.000  
R07  20320402.878   108776707.097        3208.989          39.000  
R21  20869476.062   111676782.072        1223.973          38.000  
> 2020  6 15  8 16 20.0000113  0 37
C01  37486406.001   195201573.014         170.500          33.000  
C02  37118054.306   193283454.0441        205.299          29.000  
C03  36037626.870   187657377.957         171.880          34.000  
C06  38544046.212   200708982.259        1678.657          30.000  
C07  37571042.209   195642296.825       -1293.604          33.000  
C08  37383027.968   194663241.250          -5.132          32.000  
C09  40161467.894   209131314.323        1344.844          23.000  
C10  36809222.506   191675278.202       -1046.407          34.000  
C12  23522852.768   122489753.9131       2151.359          26.000  
C13  37312792.291   194297518.290         -70.414          31.000  
C16  39268712.936   204482516.600        1775.795          28.000  
C19  25318277.721   131838917.339       -2722.231          31.000  
C21  22791768.387   118682719.275        2401.731          39.000  
C22  22147425.356   115327465.507        -565.488          40.000  
C26  26022858.350   135507858.873       -1636.971          30.000  
C35  23518468.903   122466877.704        -771.490          36.000  
E04                                                                                                                                  24493807.090    96118976.604         603.937          40.000  
E09                                                                                                                                  23690763.825    92967659.078        2115.385          37.000  
E12                                                                                                                                  24136291.993    94715996.287        -398.488          33.000  
E19                                                                                                                                  27311602.271   107176589.216       -1228.698          28.000  
E24                                                                                                                                  24677001.567    96837848.259       -1779.004          35.000  
E25                                                                                                                                  25753754.147   101063256.174        -692.086          35.000  
G02  22534857.942   118421465.262         791.931          29.000  
G04  25002361.225   131388346.597       -1441.111          30.000  
G05  21644056.731   113740320.271        2494.187          41.000  
G06  21734761.937   114216953.469        -376.308          38.000    21734764.336    85291889.731        -281.320          42.000  
G09  22913396.286   120410709.146           1.988          37.000    22913398.984    89917105.316           1.564          39.000  
G12  22791526.455   119770271.113        1730.606          31.000  
G17  21404498.874   112481410.533        -918.115          41.000  
G19  20624421.510   108382074.267        -269.166          41.000  
G28  23674916.496   124412556.017       -3211.135          30.000  
J01  38041896.243   199911523.845        -523.266          40.000    38041897.143   149284598.179        -391.030          40.000  
J02  36897857.645   193899584.156        -447.217          32.000    36897867.838   144795168.251        -333.104          35.000  
J03  37960852.449   199485631.064        1273.438          40.000    37960852.748   148966557.979         950.854          41.000  
R06  19630164.020   104750306.760        -686.045          35.000  
R07  20319807.490   108773519.952        3208.840          39.000  
R21  20869252.417   111675585.528        1223.341          38.000  
> 2020  6 15  8 16 21.0000113  0 36
C01  37486372.424   195201402.380         170.538          33.000  
C03  36037593.593   187657206.019         171.921          34.000  
C06  38543723.935   200707304.119        1678.074          31.000  
C07  37571291.636   195643590.184       -1293.170          32.000  
C08  37383029.167   194663246.703          -5.572          32.000  
C10  36809422.767   191676324.249       -1046.391          34.000  
C12  23522437.256   122487602.046        2152.046          27.000  
C13  37312805.782   194297589.636         -71.802          30.000  
C16  39268371.472   204480740.882        1775.564          28.000  
C19  25318800.259   131841639.196       -2721.692          31.000  
C21  22791305.508   118680317.280        2401.211          38.000  
C22  22147533.881   115328030.727        -565.417          41.000  
C26  26023172.832   135509495.993       -1636.515          30.000  
C35  23518616.700   122467649.298        -771.548          36.000  
E04                                                                                                                                  24493653.596    96118372.617         603.783          40.000  
E09                                                                                                                                  23690224.499    92965544.239        2114.853          37.000  
E12                                                                                                                                  24136393.323    94716394.211        -397.915          33.000  
E19                                                                                                                                  27311914.955   107177817.223       -1227.793          28.000  
E24                                                                                                                                  24677454.853    96839627.139       -1778.733          35.000  
E25                                                                                                                                  25753930.725   101063948.685        -692.998          34.000  
G04  25002634.936   131389788.417       -1441.743          30.000  
G05  21643584.258   113737826.105        2494.154          41.000  
G06  21734834.187   114217329.825        -376.397          38.000    21734835.686    85292170.669        -280.504          41.000  
G09  22913396.586   120410707.185           1.672          37.000    22913398.384    89917103.483           1.828          39.000  
G12  22791199.081   119768540.386        1730.994          31.000  
G17  21404674.552   112482328.816        -918.602          41.000  
G19  20624473.374   108382343.404        -269.026          41.000  
G28  23675528.972   124415766.809       -3211.018          30.000  
J01  38041995.175   199912047.638        -523.641          40.000    38041996.974   149284989.459        -390.994          40.000  
J02  36897943.086   193900031.346        -447.544          32.000    36897952.979   144795501.835        -333.528          35.000  
J03  37960609.917   199484357.362        1273.559          40.000    37960610.516   148965607.084         951.074          41.000  
R06  19630295.929   104750993.040        -686.664          36.000  
R07  20319209.704   108770319.469        3207.008          40.000  
R20  22695551.497   121363312.8431       -952.189          26.000  
R21  20869026.374   111674376.499        1224.188          38.000  
R22  16981667.936                        2518.521          30.000  
> 2020  6 15  8 16 22.0000115  0 37
C01  37486398.806   195201543.906         170.617          33.000  
C03  36037619.975   187657346.256         171.963          34.000  
C06  38543461.917   200705938.563        1677.956          30.000  
C07  37571599.523   195645195.747       -1293.351          33.000  
C08  37383089.726   194663564.332          -5.234          32.000  
C10  36809683.586   191677682.888       -1046.780          33.000  
C12  23522082.601   122485761.600        2152.979          26.000  
C13  37312878.032   194297973.090         -70.920          31.000  
C16  39268089.667   204479276.974        1776.102          28.000  
C19  25319382.456   131844672.959       -2722.061          31.000  
C21  22790903.486   118678228.107        2401.974          38.000  
C22  22147700.866   115328909.014        -565.684          41.000  
C26  26023546.973   135511444.808       -1636.891          30.000  
C35  23518823.857   122468733.953        -773.170          36.000  
E04                                                                                                                                  24493559.462    96118003.441         604.387          39.000  
E09                                                                                                                                  23689745.730    92963664.970        2114.633          37.000  
E12                                                                                                                                  24136554.911    94717027.965        -399.079          33.000  
E19                                                                                                                                  27312287.597   107179279.870       -1227.949          28.000  
E24                                                                                                                                  24677968.098    96841640.987       -1778.586          35.000  
E25                                                                                                                                  25754167.261   101064877.009        -693.083          35.000  
G02  22534618.408   118420196.7441        791.918          28.000  
G04  25002967.406   131391545.138       -1441.638          30.000  
G05  21643169.645   113735647.521        2493.180          41.000  
G06  21734965.197   114218020.913        -375.769          38.000    21734967.295    85292686.772        -281.444          41.000  
G09  22913455.945   120411020.899           1.325          37.000    22913458.043    89917337.923           0.504          39.000  
G12  22790931.367   119767125.270        1729.236          31.000  
G17  21404909.889   112483563.074        -919.417          41.000  
G19  20624584.897   108382928.043        -269.771          41.000  
G28  23676200.807   124419293.264       -3212.379          31.000  
J01  38042154.964   199912885.752        -523.079          41.000    38042156.463   149285615.705        -390.802          40.000  
J02  36898087.586   193900794.157        -448.009          32.000    36898097.479   144796070.358        -333.225          35.000  
J03  37960427.343   199483398.836        1273.356          41.000    37960428.242   148964891.160         950.415          41.000  
R06  19630488.096   104751999.929        -687.281          35.000  
R07  20318670.377   108767433.268        3206.999          40.000  
R20  22695788.932   121364582.113        -953.712          26.000  
R21  20868853.094   111673448.694        1223.539          39.000  
R22  16981258.120                        2518.802          31.000  
> 2020  6 15  8 16 23.0000115  0 40
C01  37486366.429   195201373.192         170.510          32.000  
C03  36037586.698   187657174.233         172.005          34.000  
C06  38543139.939   200704260.768        1677.604          30.000  
C07  37571847.151   195646489.538       -1294.100          33.000  
C08  37383091.224   194663569.414          -5.202          32.000  
C09  40160746.893   209127587.3231       1344.871          22.000  
C10  36809884.747   191678729.971       -1047.914          34.000  
C12  23521667.988   122483609.556        2150.417          26.000  
C13  37312891.223   194298043.992         -70.971          31.000  
C16  39267748.803   204477500.760        1776.534          28.000  
C19  25319905.594   131847395.329       -2722.630          31.000  
C21  22790442.705   118675826.889        2400.050          38.000  
C22  22147809.690   115329475.255        -566.537          40.000  
C26  26023862.055   135513081.060       -1635.559          30.000  
C35  23518974.353   122469506.073        -772.844          36.000  
E04                                                                                                                                  24493405.668    96117399.782         602.758          39.000  
E09                                                                                                                                  23689207.303    92961550.056        2113.563          37.000  
E12                                                                                                                                  24136656.241    94717426.502        -398.723          33.000  
E19                                                                                                                                  27312600.580   107180508.264       -1228.574          28.000  
E24                                                                                                                                  24678421.684    96843420.277       -1778.734          35.000  
E25                                                                                                                                  25754343.539   101065570.360        -693.666          34.000  
G02  22534467.912   118419404.994         791.392          29.000  
G04  25003241.116   131392987.099       -1441.912          29.000  
G05  21642695.374   113733154.904        2491.931          41.000  
G06  21735035.348   114218397.534        -377.127          38.000    21735039.245    85292968.234        -281.883          41.000  
G09  22913456.844   120411019.931           0.450          37.000    22913457.743    89917337.143           0.331          39.000  
G12  22790603.693   119765396.394        1728.180          31.000  
G17  21405083.169   112484483.031        -920.874          41.000  
G19  20624635.262   108383198.576        -271.095          40.000  
G28  23676810.285   124422505.700       -3213.119          30.000  
J01  38042254.795   199913409.664        -524.383          40.000    38042256.294   149286006.669        -391.272          40.000  
J02  36898172.727   193901241.266        -446.800          32.000    36898182.320   144796403.352        -333.029          35.000  
J03  37960185.710   199482125.693        1272.916          40.000    37960185.710   148963940.601         950.683          41.000  
R05  23695356.946   126665262.6611      -3757.025          32.000  
R06  19630619.105   104752687.560        -688.070          35.000  
R07  20318073.490   108764237.534        3206.062          40.000  
R12  23340474.326   124680623.6991        -98.725          31.000  
R20  22695965.210   121365525.197        -954.635          26.000  
R21  20868617.757   111672189.236        1222.850          38.000  
R22  16980788.645    90644602.2261       2517.460          32.000  
> 2020  6 15  8 16 24.0000118  0 40
C01  37486425.488   195201670.874         170.482          33.000  
C02  37118047.710   193283414.6241        203.834          29.000  
C03  36037643.958   187657470.387         172.182          34.000  
C06  38542907.900   200703051.467        1677.149          30.000  
C07  37572186.816   195648252.057       -1294.572          33.000  
C08  37383183.561   194664043.087          -5.096          32.000  
C09  40160578.410   209126710.490        1343.949          23.000  
C10  36810177.045   191680246.295       -1048.146          34.000  
C12  23521344.812   122481926.748        2151.220          26.000  
C13  37312996.450   194298583.307         -71.786          31.000  
C16  39267499.076   204476191.674        1777.606          28.000  
C19  25320519.269   131850586.984       -2723.904          31.000  
C21  22790073.660   118673895.007        2400.035          38.000  
C22  22148010.851   115330510.730        -567.796          40.000  
C26  26024267.075   135515185.087       -1635.762          30.000  
C35  23519214.487   122470747.612        -774.282          36.000  
E04                                                                                                                                  24493342.112    96117150.317         602.228          39.000  
E09                                                                                                                                  23688759.113    92959788.960        2113.371          37.000  
E12                                                                                                                                  24136848.108    94718178.757        -399.737          33.000  
E19                                                                                                                                  27313005.600   107182091.184       -1230.342          28.000  
E24                                                                                                                                  24678965.208    96845552.323       -1779.483          35.000  
E25                                                                                                                                  25754610.954   101066617.761        -695.093          35.000  
G04  25003603.266   131394901.985       -1442.937          29.000  
G05  21642310.740   113731135.294        2492.304          41.000  
G06  21735197.536   114219247.249        -377.094          38.000    21735201.133    85293602.785        -281.387          42.000  
G09  22913543.484   120411491.865           0.117          37.000    22913547.981    89917690.120           0.094          39.000  
G12  22790365.059   119764140.732        1727.919          31.000  
G17  21405346.687   112485876.226        -920.147          40.000  
G19  20624774.366   108383942.720        -272.320          41.000  
G28  23677510.301   124426191.121       -3212.012          29.000  
J01  38042444.863   199914406.590        -524.062          40.000    38042446.362   149286750.780        -391.082          40.000  
J02                                                                  36898357.699   144797089.498        -333.208          35.000  
J03  37960030.118   199481324.742        1273.475          40.000    37960033.715   148963342.761         950.845          41.000  
R05  23696148.698   126669494.693       -3757.774          32.000  
R06  19630839.752   104753856.187        -689.169          36.000  
R07  20317559.047   108761483.836        3206.011          40.000  
R12  23340587.947   124681231.297         -99.676          31.000  
R20  22696231.426   121366948.564        -956.304          25.000  
R21  20868481.951   111671463.245        1222.167          39.000  
R22  16980405.210    90642555.412        2516.731          32.000  
> 2020  6 15  8 16 25.0000118  0 39
C01  37486393.110   195201500.369         170.319          33.000  
C03  36037610.082   187657298.114         172.265          35.000  
C06  38542585.923   200701374.175        1677.021          31.000  
C07  37572436.843   195649546.505       -1294.483          33.000  
C08  37383185.060   194664048.107          -5.358          32.000  
C09  40160321.188   209125366.506        1344.077          24.000  
C10  36810377.306   191681294.611       -1048.730          34.000  
C12  23520930.798   122479775.875        2149.119          26.000  
C13  37313009.041   194298654.474         -70.342          31.000  
C16  39267158.512   204474414.136        1777.374          29.000  
C19  25321042.407   131853310.433       -2722.901          31.000  
C21  22789613.179   118671495.137        2399.341          38.000  
C22  22148121.175   115331078.760        -568.373          41.000  
C26  26024581.857   135516821.104       -1636.334          30.000  
C35  23519362.884   122471521.461        -773.485          36.000  
E04                                                                                                                                  24493188.918    96116548.315         601.939          40.000  
E09                                                                                                                                  23688220.086    92957674.717        2114.784          37.000  
E12                                                                                                                                  24136950.337    94718578.216        -399.849          32.000  
E19                                                                                                                                  27313319.482   107183321.382       -1230.487          29.000  
E24                                                                                                                                  24679419.094    96847332.283       -1780.501          35.000  
E25                                                                                                                                  25754788.431   101067312.636        -694.705          35.000  
G02  22534257.758   118418294.7551        790.788          29.000  
G04  25003876.077   131396344.292       -1441.876          29.000  
G05  21641835.569   113728643.539        2491.456          41.000  
G06  21735269.486   114219624.273        -377.413          38.000    21735273.084    85293884.402        -281.846          42.000  
G09  22913545.882   120411492.205          -0.880          37.000    22913548.880    89917690.656          -0.915          39.000  
G12  22790035.886   119762413.476        1726.351          30.000  
G17  21405521.766   112486797.051        -921.502          40.000  
G19  20624825.630   108384214.449        -272.047          40.000  
G28  23678121.877   124429403.561       -3213.187          29.000  
J01  38042545.294   199914930.938        -524.710          40.000    38042546.493   149287142.242        -391.212          40.000  
J02  36898432.047   193902606.4351       -446.817          31.000    36898442.840   144797422.791        -334.411          35.000  
J03  37959788.785   199480051.774        1272.904          41.000    37959791.783   148962392.085         950.780          41.000  
R06  19630967.464   104754546.111        -690.404          36.000  
R07  20316960.661   108758281.453        3204.682          40.000  
R12  23340607.734   124681336.313        -100.494          32.000  
R20  22696405.306   121367877.993        -956.484          26.000  
R21  20868258.006   111670264.011        1221.946          39.000  
R22  16979936.035    90640050.776        2516.663          32.000  
> 2020  6 15  8 16 26.0000120  0 39
C01  37486420.691   195201641.895         170.534          33.000  
C03  36037636.164   187657437.939         172.498          35.000  
C06  38542324.204   200700009.698        1676.410          31.000  
C07  37572747.128   195651153.439       -1294.907          33.000  
C08  37383246.517   194664365.670          -5.252          32.000  
C09  40160125.424   209124334.089        1344.926          22.000  
C10  36810638.725   191682655.451       -1048.367          34.000  
C12  23520577.943   122477938.477        2150.040          27.000  
C13  37313083.090   194299037.195         -70.441          31.000  
C16  39266877.606   204472949.305        1776.887          29.000  
C19  25321626.103   131856345.699       -2723.501          31.000  
C21  22789212.057   118669408.275        2398.289          38.000  
C22  22148288.759   115331959.606        -568.769          41.000  
C26  26024955.998   135518769.435       -1635.619          31.000  
C35  23519573.638   122472606.980        -773.709          36.000  
E04                                                                                                                                  24493095.383    96116181.443         602.157          39.000  
E09                                                                                                                                  23687741.318    92955795.564        2114.313          37.000  
E12                                                                                                                                  24137111.625    94719212.950        -399.676          32.000  
E19                                                                                                                                  27313693.324   107184787.715       -1231.698          28.000  
E24                                                                                                                                  24679932.638    96849347.982       -1779.975          35.000  
E25                                                                                                                                  25755025.267   101068242.939        -694.919          34.000  
G02  22534165.722   118417818.571         791.278          29.000  
G04  25004211.545   131398101.944       -1443.364          29.000  
G05  21641421.256   113726466.900        2491.487          40.000  
G06  21735401.395   114220316.842        -377.072          38.000    21735404.992    85294401.215        -281.115          41.000  
G09  22913606.740   120411808.315          -1.517          37.000    22913609.438    89917927.522          -1.804          39.000  
G12  22789767.872   119761002.566        1726.042          30.000  
G17  21405756.803   112488033.661        -921.268          40.000  
G19  20624937.153   108384801.782        -272.006          40.000  
G28  23678793.412   124432931.330       -3212.636          30.000  
J01  38042703.884   199915770.075        -523.683          40.000    38042705.983   149287768.800        -391.600          40.000  
J02  36898578.346   193903368.381        -446.775          31.000    36898588.539   144797992.471        -333.641          34.000  
J03  37959607.111   199479093.809        1272.852          40.000    37959609.509   148961676.869         950.578          41.000  
R05  23697614.083   126677327.9521      -3758.547          33.000  
R06  19631157.233   104755556.749        -691.287          36.000  
R07  20316420.735   108755391.632        3204.722          39.000  
R20  22696642.142   121369145.091        -954.400          27.000  
R21  20868093.719   111669385.031        1221.929          39.000  
R22  16979527.718    90637871.925        2517.281          33.000  
> 2020  6 15  8 16 27.0000120  0 37
C01  37486388.014   195201471.283         170.412          33.000  
C03  36037602.587   187657265.360         172.516          35.000  
C06  38542001.927   200698333.242        1676.779          30.000  
C07  37572996.856   195652448.465       -1295.308          33.000  
C08  37383247.716   194664370.863          -4.811          33.000  
C09  40159867.003   209122989.744        1344.068          24.000  
C10  36810839.586   191683703.371       -1048.037          34.000  
C12  23520163.929   122475787.260        2151.101          27.000  
C13  37313096.581   194299107.296         -69.982          32.000  
C16  39266537.342   204471172.733        1776.580          29.000  
C19  25322149.840   131859069.380       -2724.262          31.000  
C21  22788752.175   118667009.320        2399.760          38.000  
C22  22148397.883   115332528.186        -568.652          40.000  
C26  26025270.780   135520404.993       -1635.477          31.000  
C35  23519722.035   122473381.106        -774.409          37.000  
E04                                                                                                                                  24492941.589    96115579.103         601.678          39.000  
E09                                                                                                                                  23687202.291    92953681.281        2113.918          37.000  
E12                                                                                                                                  24137213.255    94719611.622        -397.790          32.000  
E19                                                                                                                                  27314006.906   107186018.959       -1231.409          28.000  
E24                                                                                                                                  24680385.924    96851127.075       -1778.744          35.000  
E25                                                                                                                                  25755202.444   101068937.846        -695.460          35.000  
G02  22534014.926   118417026.958         791.556          29.000  
G04  25004486.754   131399545.445       -1443.909          30.000  
G05  21640946.385   113723975.440        2491.569          40.000  
G06  21735473.345   114220693.206        -376.429          38.000    21735476.043    85294682.300        -281.156          42.000  
G09  22913604.042   120411809.247          -1.668          36.000    22913609.438    89917928.895          -1.350          39.000  
G17  21405931.882   112488955.158        -921.900          40.000  
G19  20624991.116   108385074.136        -272.435          40.000  
G28  23679404.090   124436144.056       -3212.629          29.000  
J01  38042802.216   199916294.014        -524.182          40.000    38042805.514   149288160.007        -391.452          40.000  
J02  36898663.187   193903814.748        -446.314          32.000    36898673.380   144798325.621        -333.058          35.000  
J03  37959365.778   199477820.540        1273.639          40.000    37959366.677   148960725.783         951.988          41.000  
R06  19631286.443   104756248.275        -692.032          35.000  
R07  20315821.449   108752182.970        3202.825          39.000  
R20  22696821.118   121370102.083        -954.955          26.000  
R21  20867859.881   111668134.301        1223.065          39.000  
R22  16979058.243    90635365.925        2518.426          32.000  
> 2020  6 15  8 16 28.0000120  0 37
C01  37486355.036   195201300.795         170.464          32.000  
C03  36037569.010   187657092.861         172.357          34.000  
C06  38541679.950   200696656.041        1678.004          30.000  
C07  37573245.683   195653743.676       -1295.078          33.000  
C08  37383248.016   194664375.491          -4.406          32.000  
C09  40159608.881   209121645.744        1344.183          23.000  
C10  36811041.047   191684751.306       -1048.011          33.000  
C12  23519749.616   122473635.873        2151.793          26.000  
C13  37313110.071   194299177.220         -69.936          31.000  
C16  39266196.478   204469395.957        1777.632          29.000  
C19  25322672.678   131861793.924       -2725.181          31.000  
C21  22788290.795   118664609.840        2399.224          38.000  
C22  22148505.509   115333097.187        -568.940          40.000  
C26  26025584.063   135522039.198       -1633.451          30.000  
C35  23519870.732   122474154.472        -773.131          37.000  
E04                                                                                                                                  24492788.096    96114977.300         602.088          39.000  
E09                                                                                                                                  23686663.864    92951567.405        2114.862          37.000  
E12                                                                                                                                  24137314.585    94720010.197        -398.309          32.000  
E19                                                                                                                                  27314319.890   107187250.860       -1232.273          28.000  
E24                                                                                                                                  24680838.911    96852906.610       -1780.233          35.000  
E25                                                                                                                                  25755379.322   101069633.261        -694.740          35.000  
G02  22533865.330   118416235.427         791.307          29.000  
G04  25004761.364   131400989.588       -1444.331          29.000  
G05  21640473.312   113721484.003        2491.449          40.000  
G06  21735541.997   114221070.045        -376.661          38.000    21735547.993    85294963.494        -281.283          42.000  
G09  22913606.141   120411811.019          -2.540          36.000    22913609.438    89917930.052          -0.695          39.000  
G17  21406105.761   112489877.721        -922.669          40.000  
G19  20625043.280   108385346.827        -272.834          40.000  
G28  23680014.167   124439356.185       -3211.558          29.000  
J01  38042903.846   199916817.833        -524.170          40.000    38042905.045   149288550.859        -390.909          39.000  
J02  36898749.227   193904260.948        -446.097          31.000    36898758.521   144798658.430        -333.030          35.000  
J03  37959122.346   199476546.916        1273.125          40.000    37959124.445   148959774.165         951.536          41.000  
R06  19631414.455   104756940.589        -692.653          35.000  
R07  20315220.665   108748967.467        3204.010          39.000  
R20  22696995.597   121371034.662        -954.231          26.000  
R21  20867629.641   111666902.199        1223.257          39.000  
R22  16978589.067    90632860.925        2518.660          32.000  
> 2020  6 15  8 16 29.0000120  0 38
C01  37486322.359   195201130.200         170.571          32.000  
C02  37117911.904   193282710.8531        203.696          29.000  
C03  36037535.134   187656920.463         172.357          35.000  
C06  38541357.373   200694978.020        1678.228          31.000  
C07  37573494.211   195655038.324       -1294.650          32.000  
C08  37383248.915   194664379.892          -4.939          32.000  
C09  40159350.760   209120300.664        1345.844          24.000  
C10  36811241.908   191685800.017       -1048.593          33.000  
C12  23519335.303   122471483.531        2152.369          27.000  
C13  37313124.162   194299246.989         -69.398          30.000  
C16  39265855.014   204467618.062        1778.113          29.000  
C19  25323197.315   131864518.756       -2724.512          31.000  
C21  22787830.014   118662211.098        2399.214          38.000  
C22  22148617.631   115333666.263        -569.361          40.000  
C26  26025897.346   135523672.811       -1633.958          30.000  
C35  23520016.731   122474927.818        -773.201          36.000  
E04                                                                                                                                  24492635.201    96114375.239         601.885          39.000  
E09                                                                                                                                  23686125.137    92949452.289        2114.770          37.000  
E12                                                                                                                                  24137415.915    94720408.814        -398.762          32.000  
E19                                                                                                                                  27314633.473   107188481.528       -1230.318          28.000  
E24                                                                                                                                  24681292.197    96854686.326       -1780.176          35.000  
E25                                                                                                                                  25755555.900   101070327.951        -694.708          35.000  
G02  22533715.433   118415443.753         791.785          29.000  
G04  25005039.272   131402434.654       -1445.037          29.000  
G05  21640000.240   113718992.831        2491.054          40.000  
G06  21735614.547   114221446.148        -376.028          38.000    21735619.943    85295244.807        -281.205          41.000  
G09  22913604.642   120411812.671          -0.920          36.000    22913609.738    89917931.373          -2.265          39.000  
G17  21406281.140   112490800.220        -922.340          39.000  
G19  20625095.144   108385619.651        -273.202          40.000  
G28  23680625.144   124442567.760       -3211.626          29.000  
J01  38043004.576   199917341.585        -523.904          40.000    38043004.876   149288941.934        -391.429          39.000  
J02  36898834.069   193904706.861        -445.173          31.000    36898843.362   144798991.751        -333.531          35.000  
J03  37958878.915   199475273.345        1273.368          39.000    37958882.512   148958822.951         951.067          41.000  
R06  19631543.665   104757633.489        -693.028          36.000  
R07  20314625.877   108745783.019        3203.515          39.000  
R20  22697180.869   121372026.222        -956.538          26.000  
R21  20867397.601   111665659.818        1223.101          39.000  
R22  16978115.095    90630330.925        2519.529          32.000  
> 2020  6 15  8 16 30.0000123  0 40
C01  37486379.919   195201427.764         170.734          32.000  
C02  37117962.569   193282975.428         203.779          31.000  
C03  36037591.495   187657216.394         172.357          35.000  
C06  38541125.334   200693767.207        1679.638          30.000  
C07  37573831.778   195656800.861       -1294.137          32.000  
C08  37383340.352   194664853.177          -4.708          32.000  
C09  40159181.377   209119422.179        1346.712          24.000  
C10  36811533.306   191687316.484       -1048.012          33.000  
C12  23519011.227   122469800.238        2151.163          27.000  
C13  37313229.089   194299784.761         -69.377          30.000  
C16  39265605.287   204466307.758        1778.967          29.000  
C19  25323810.391   131867711.486       -2724.369          31.000  
C21  22787459.470   118660280.807        2397.992          38.000  
C22  22148818.792   115334704.184        -569.747          40.000  
C26  26026302.366   135525775.312       -1634.793          30.000  
C35  23520258.364   122476170.543        -774.302          36.000  
E04                                                                                                                                  24492571.945    96114126.550         600.924          40.000  
E09                                                                                                                                  23685676.647    92947690.825        2114.028          37.000  
E12                                                                                                                                  24137607.782    94721160.370        -398.961          33.000  
E19                                                                                                                                  27315037.293   107190066.316       -1231.126          28.000  
E24                                                                                                                                  24681835.721    96856818.785       -1779.285          35.000  
E25                                                                                                                                  25755822.715   101071375.671        -695.499          35.000  
G02  22533655.175   118415124.417         792.402          29.000  
G04  25005408.316   131404352.218       -1445.071          29.000  
G05  21639618.604   113716975.191        2489.418          40.000  
G06  21735777.035   114222295.160        -377.046          38.000    21735781.532    85295878.745        -281.229          42.000  
G09  22913695.479   120412287.955          -3.294          36.000    22913700.875    89918286.231          -1.946          39.000  
G12  22788542.920   119754571.7591       1723.959          29.000  
G17  21406546.456   112492195.347        -923.263          40.000  
G19  20625236.946   108386365.680        -274.214          40.000  
G28  23681326.958   124446251.989       -3211.984          29.000  
J01  38043191.946   199918338.019        -524.443          40.000    38043194.345   149289686.241        -391.018          40.000  
J02  36899007.049   193905625.047        -445.703          31.000    36899018.441   144799678.229        -333.473          35.000  
J03  37958726.620   199474472.154        1273.169          40.000    37958730.218   148958224.946         951.065          41.000  
R06  19631763.113   104758806.858        -693.908          35.000  
R07  20314120.727   108743079.669        3202.207          40.000  
R12  23340852.064   124682641.9371       -103.027          31.000  
R20  22697446.485   121373445.903        -953.512          26.000  
R21  20867266.292   111664957.462        1222.366          39.000  
R22  16977730.462    90628278.019        2519.100          33.000  
> 2020  6 15  8 16 31.0000123  0 38
C01  37486347.542   195201256.866         170.818          34.000  
C03  36037558.517   187657044.057         172.236          36.000  
C06  38540803.057   200692087.834        1679.556          31.000  
C07  37574080.006   195658094.814       -1294.046          33.000  
C08  37383341.851   194664857.583          -3.943          33.000  
C09  40158923.856   209118076.518        1345.407          24.000  
C10  36811735.066   191688364.349       -1047.735          34.000  
C12  23518597.814   122467648.465        2151.490          27.000  
C13  37313243.179   194299853.889         -68.787          32.000  
C16  39265264.723   204464529.264        1778.332          30.000  
C19  25324333.529   131870435.523       -2724.378          32.000  
C21  22786999.588   118657883.536        2397.070          39.000  
C22  22148929.115   115335274.655        -571.419          42.000  
C24  26134506.458   136089232.4241      -1373.224          22.000  
C26  26026618.047   135527409.753       -1634.420          32.000  
C35  23520408.560   122476945.185        -774.760          37.000  
E04                                                                                                                                  24492419.051    96113525.701         601.218          39.000  
E09                                                                                                                                  23685138.220    92945577.040        2113.670          37.000  
E12                                                                                                                                  24137709.711    94721559.165        -399.446          32.000  
E19                                                                                                                                  27315350.876   107191297.532       -1231.579          28.000  
E24                                                                                                                                  24682289.307    96858597.950       -1779.842          35.000  
E25                                                                                                                                  25756000.792   101072072.000        -696.834          35.000  
G02  22533503.480   118414332.121         792.222          29.000  
G04  25005685.324   131405797.745       -1446.383          31.000  
G05  21639144.032   113714485.937        2488.991          41.000  
G06  21735845.987   114222672.301        -377.169          39.000    21735853.482    85296160.078        -281.729          41.000  
G09  22913698.177   120412291.396          -4.491          37.000    22913701.475    89918288.748          -2.969          39.000  
G17  21406722.734   112493118.815        -923.722          40.000  
G19  20625290.608   108386640.205        -274.718          41.000  
G28  23681939.434   124449463.694       -3211.564          30.000  
J01  38043292.077   199918862.309        -524.084          40.000    38043294.775   149290077.552        -391.353          40.000  
J02  36899092.190   193906070.983        -445.930          33.000    36899103.582   144800011.442        -333.980          35.000  
J03  37958486.187   199473198.649        1273.392          40.000    37958487.986   148957274.069         951.460          41.000  
R06  19631892.923   104759501.351        -695.063          36.000  
R07  20313521.142   108739870.031        3201.183          40.000  
R12  23340870.352   124682739.358        -104.234          31.000  
R20  22697628.459   121374419.093        -956.678          26.000  
R21  20867038.750   111663739.975        1222.631          39.000  
> 2020  6 15  8 16 32.0000125  0 39
C01  37486374.523   195201398.100         170.901          34.000  
C03  36037586.698   187657183.990         172.483          36.000  
C06  38540541.338   200690721.261        1678.126          31.000  
C07  37574388.792   195659701.299       -1294.197          33.000  
C08  37383403.608   194665173.695          -3.836          33.000  
C09  40158725.393   209117043.354        1346.122          25.000  
C10  36811996.485   191689724.459       -1048.026          35.000  
C12  23518245.557   122465809.999        2149.848          26.000  
C13  37313318.127   194300234.991         -69.443          32.000  
C16  39264983.518   204463063.812        1777.382          30.000  
C19  25324918.124   131873472.819       -2725.006          32.000  
C21  22786600.265   118655798.936        2396.763          39.000  
C22  22149099.098   115336158.223        -571.520          41.000  
C24  26134829.634   136090916.681       -1371.799          22.000  
C26  26026992.488   135529356.709       -1635.031          31.000  
C35  23520617.515   122478032.211        -774.924          37.000  
E04                                                                                                                                  24492325.516    96113160.315         600.035          39.000  
E09                                                                                                                                  23684659.451    92943699.175        2112.682          37.000  
E12                                                                                                                                  24137871.299    94722193.731        -399.211          32.000  
E19                                                                                                                                  27315724.417   107192764.231       -1230.873          28.000  
E24                                                                                                                                  24682802.851    96860612.814       -1779.864          35.000  
E25                                                                                                                                  25756237.928   101073004.338        -696.978          34.000  
G02  22533412.043   118413854.852         792.182          30.000  
G04  25006021.991   131407559.118       -1446.563          30.000  
G05  21638730.019   113712312.099        2488.695          41.000  
G06  21735980.594   114223364.592        -377.368          39.000    21735985.091    85296677.154        -281.295          41.000  
G09  22913757.836   120412611.218          -4.678          37.000    22913762.033    89918527.504          -3.761          39.000  
G17  21406960.470   112494357.715        -924.540          40.000  
G19  20625401.831   108387230.064        -275.054          41.000  
G28  23682611.269   124452990.554       -3211.907          30.000  
J01  38043453.065   199919701.513        -524.296          40.000    38043454.265   149290703.846        -390.672          39.000  
J02  36899237.290   193906832.262        -446.867          32.000    36899248.382   144800580.376        -333.837          35.000  
J03  37958303.313   199472240.977        1272.952          41.000    37958305.412   148956558.492         950.925          41.000  
R06  19632082.392   104760516.959        -695.971          35.000  
R07  20312976.419   108736954.069        3200.139          39.000  
R12  23340950.696   124683168.094        -104.828          30.000  
R20  22697873.689   121375730.521        -955.608          25.000  
R21  20866865.470   111662812.768        1221.751          39.000  
R22  16976846.074    90623557.0811       2519.207          32.000  
> 2020  6 15  8 16 33.0000125  0 39
C01  37486341.846   195201226.958         171.106          34.000  
C03  36037555.819   187657011.488         172.532          36.000  
C06  38540219.062   200689043.065        1677.929          32.000  
C07  37574637.020   195660995.398       -1294.188          34.000  
C08  37383405.107   194665177.570          -4.218          33.000  
C09  40158468.471   209115697.758        1344.567          25.000  
C10  36812197.346   191690772.511       -1048.235          35.000  
C12  23517833.643   122463659.829        2150.538          27.000  
C13  37313333.117   194300304.400         -69.649          32.000  
C16  39264642.953   204461286.741        1777.103          31.000  
C19  25325441.861   131876197.649       -2724.908          32.000  
C21  22786139.184   118653401.923        2396.866          39.000  
C22  22149208.522   115336729.614        -571.574          42.000  
C24  26135093.451   136092287.713       -1370.845          22.000  
C26  26027307.270   135530991.527       -1634.407          32.000  
C35  23520766.512   122478806.514        -774.085          37.000  
E04                                                                                                                                  24492172.922    96112560.097         600.280          39.000  
E09                                                                                                                                  23684121.024    92941586.027        2113.500          37.000  
E12                                                                                                                                  24137972.929    94722592.631        -398.938          32.000  
E19                                                                                                                                  27316038.000   107193994.297       -1230.793          27.000  
E24                                                                                                                                  24683256.137    96862392.043       -1779.143          35.000  
E25                                                                                                                                  25756415.405   101073700.775        -695.508          35.000  
G02  22533262.147   118413062.607         792.227          31.000  
G04  25006298.100   131409005.879       -1447.031          30.000  
G05  21638257.546   113709823.350        2488.531          42.000  
G06  21736052.244   114223741.336        -376.867          39.000    21736056.741    85296958.405        -281.234          41.000  
G09  22913760.833   120412615.919          -5.292          37.000    22913762.632    89918531.243          -3.484          38.000  
G12  22787617.161   119749717.7331       1722.378          30.000  
G17  21407136.748   112495282.481        -924.932          41.000  
G19  20625454.295   108387505.033        -275.080          42.000  
G28  23683221.947   124456202.423       -3211.877          31.000  
J01  38043553.496   199920225.826        -523.857          41.000    38043553.496   149291094.675        -390.950          39.000  
J02  36899322.131   193907278.717        -446.345          33.000    36899333.223   144800914.459        -334.233          34.000  
J03  37958061.681   199470967.392        1273.735          41.000    37958062.880   148955607.513         951.450          40.000  
R06  19632212.202   104761213.260        -696.941          35.000  
R07  20312383.430   108733778.884        3200.090          39.000  
R20  22698052.066   121376684.405        -956.705          25.000  
R21  20866635.829   111661583.838        1221.861          39.000  
R22  16976372.702    90621030.081        2518.823          33.000  
> 2020  6 15  8 16 34.0000128  0 39
C01  37486399.106   195201524.208         170.868          34.000  
C03  36037612.180   187657307.100         172.681          36.000  
C06  38539987.022   200687833.337        1677.937          32.000  
C07  37574975.486   195662758.050       -1294.637          33.000  
C08  37383496.244   194665650.034          -4.101          33.000  
C09  40158299.688   209114821.827        1344.130          24.000  
C10  36812488.145   191692288.669       -1047.521          34.000  
C12  23517508.068   122461976.874        2152.898          26.000  
C13  37313436.845   194300842.296         -69.598          32.000  
C16  39264392.327   204459977.513        1778.140          31.000  
C19  25326055.237   131879390.848       -2724.769          32.000  
C21  22785767.142   118651473.038        2397.106          39.000  
C22  22149406.085   115337769.848        -571.871          42.000  
C24  26135445.707   136094125.508       -1369.703          23.000  
C26  26027711.390   135533093.670       -1633.714          31.000  
C35  23521003.648   122480049.676        -774.926          37.000  
E04                                                                                                                                  24492109.665    96112312.584         600.626          39.000  
E09                                                                                                                                  23683671.935    92939825.426        2114.516          37.000  
E12                                                                                                                                  24138164.796    94723343.966        -398.209          32.000  
E19                                                                                                                                  27316441.821   107195578.387       -1231.133          28.000  
E24                                                                                                                                  24683799.361    96864524.226       -1779.178          35.000  
E25                                                                                                                                  25756682.820   101074749.770        -696.377          34.000  
G02  22533199.191   118412742.818         792.499          31.000  
G04  25006662.947   131410926.116       -1447.529          30.000  
G05  21637873.212   113707807.509        2488.714          42.000  
G06  21736213.832   114224590.414        -376.417          40.000    21736218.029    85297592.525        -280.897          41.000  
G09  22913850.471   120413093.631          -4.924          37.000    22913853.769    89918887.809          -3.632          39.000  
G17  21407402.664   112496679.385        -924.262          41.000  
G19  20625596.996   108388252.578        -275.448          42.000  
G28  23683922.861   124459886.777       -3211.747          30.000  
J01  38043742.965   199921222.081        -523.344          41.000    38043743.564   149291838.957        -391.443          39.000  
J02  36899498.109   193908197.779        -446.581          32.000    36899507.702   144801600.735        -333.212          34.000  
J03  37957909.386   199470165.972        1274.129          41.000    37957910.286   148955009.062         951.556          41.000  
R05  23703479.822   126708684.0421      -3759.989          32.000  
R06  19632433.149   104762390.566        -697.935          36.000  
R07  20311872.883   108731046.836        3200.408          39.000  
R20  22698327.275   121378155.669        -956.170          25.000  
R21  20866500.622   111660860.659        1222.727          39.000  
R22  16975988.668    90618980.175        2519.936          33.000  
> 2020  6 15  8 17 22.0000184  0 39
C01  37486481.849   195201952.403         171.136          33.000  
C02  37117733.528   193281762.7251        204.857          30.000  
C03  36037685.330   187657681.976         171.331          34.000  
C06  38526179.481   200615910.642        1678.118          30.000  
C07  37588580.367   195733593.303       -1298.288          32.000  
C08  37385170.285   194674350.735          -0.294          32.000  
C09  40147528.744   209058719.721        1350.502          24.000  
C10  36823844.583   191751398.318       -1056.041          33.000  
C13  37315722.163   194312717.745         -68.894          30.000  
C16  39249657.528   204383259.444        1777.126          30.000  
C19  25352873.171   132019019.550       -2734.735          31.000  
C21  22765422.926   118545534.234        2375.994          38.000  
C22  22156456.604   115374473.272        -597.323          40.000  
C26  26044372.656   135619892.913       -1624.765          29.000  
C34  25726529.694   133964751.6541       2530.460          26.000  
C35  23529867.911   122526200.883        -790.052          36.000  
E04                                                                                                                                  24486525.431    96090394.883         582.811          38.000  
E09                                                                                                                                  23659510.162    92845011.320        2106.779          35.000  
E12                                                                                                                                  24144706.867    94749024.599        -402.700          32.000  
E19                                                                                                                                  27333245.488   107261520.250       -1245.916          26.000  
E24                                                                                                                                  24707226.343    96956457.540       -1781.357          34.000  
E25                                                                                                                                  25766939.919   101114995.292        -709.932          34.000  
G02  22527621.252   118383412.804         791.110          30.000  
G04  25021641.778   131489675.072       -1472.441          26.000  
G05  21616906.027   113597620.535        2465.547          38.000  
G06  21741324.694   114251423.938        -378.891          38.000    21741325.294    85317635.469        -284.540          40.000  
G09  22915680.105   120422724.224         -34.298          34.000    22915687.000    89926083.567         -24.989          37.000  
G12  22773431.282   119675192.0081       1691.686          29.000  
G17  21417609.997   112550307.870        -946.086          38.000  
G19  20629874.135   108410746.753        -301.325          39.000  
G28  23714930.096   124622813.611       -3214.984          30.000  
J01  38050204.991   199955170.402        -529.871          38.000    38050203.492   149317190.311        -395.140          38.000  
J02  36905230.141   193938318.014        -447.681          29.000    36905241.233   144824100.184        -335.304          33.000  
J03  37947937.390   199417756.004        1274.051          38.000    37947937.689   148915870.263         950.073          39.000  
R05  23738982.744   126898468.630       -3774.574          26.000  
R06  19640562.921   104805737.179        -740.843          33.000  
R07  20284973.705   108587052.765        3169.094          33.000  
R08  24090716.944   129004695.7961       4588.341          23.000  
R21  20857221.146   111611203.749        1216.153          32.000  
> 2020  6 15  8 17 23.0000184  0 39
C01  37486450.370   195201781.232         170.919          34.000  
C02  37117694.855   193281557.950         204.690          32.000  
C03  36037653.552   187657510.471         171.686          36.000  
C06  38525857.204   200614231.864        1679.039          31.000  
C07  37588830.094   195734891.133       -1297.131          32.000  
C08  37385170.885   194674349.987           1.854          33.000  
C09  40147269.124   209057368.701        1350.885          25.000  
C10  36824048.142   191752453.372       -1054.570          34.000  
C13  37315734.155   194312785.131         -66.490          31.000  
C16  39249316.064   204381481.476        1779.153          30.000  
C19  25353398.108   132021753.765       -2733.898          31.000  
C21  22764970.539   118543156.283        2378.617          39.000  
C22  22156574.722   115375068.397        -595.131          40.000  
C24  26150019.218   136170004.6541      -1370.623          18.000  
C26  26044686.539   135621516.208       -1622.616          29.000  
C34  25726047.628   133962220.277        2532.293          28.000  
C35  23530019.007   122526989.057        -787.257          37.000  
E04                                                                                                                                  24486375.835    96089810.601         585.229          34.000  
E09                                                                                                                                  23658972.034    92842903.167        2109.144          31.000  
E12                                                                                                                                  24144809.396    94749425.149        -399.803          28.000  
E19                                                                                                                                  27333562.369   107262764.634       -1242.987          22.000  
E24                                                                                                                                  24707679.330    96958236.695       -1778.582          29.000  
E25                                                                                                                                  25767120.394   101115704.752        -709.068          30.000  
G02  22527471.956   118382620.603         792.792          32.000  
G04  25021921.784   131491146.533       -1471.174          27.000  
G05  21616435.353   113595152.782        2468.711          39.000  
G06  21741396.045   114251800.021        -375.137          39.000    21741396.045    85317917.528        -280.609          34.000  
G09                                                                  22915691.797    89926107.341         -22.733          32.000  
G12  22773110.504   119673499.413        1693.282          31.000  
G17  21417789.273   112551252.563        -944.655          39.000  
G19  20629928.997   108411045.937        -297.898          38.000  
G28  23715544.970   124626027.753       -3213.453          31.000  
J01  38050303.623   199955697.937        -526.101          38.000    38050302.424   149317583.640        -392.183          33.000  
J02  36905316.481   193938764.595        -445.918          30.000    36905325.775   144824435.218        -333.590          28.000  
J03  37947692.759   199416480.122        1275.946          39.000    37947693.958   148914918.581         952.637          35.000  
R05  23739688.755   126902242.545       -3773.492          23.000  
R06  19640700.826   104806477.648        -739.894          32.000  
R07  20284381.315   108583881.701        3170.510          35.000  
R21  20856998.700   111610013.333        1218.305          33.000  
> 2020  6 15  8 17 24.0000187  0 40
C01  37486507.931   195202078.549         170.798          34.000  
C02  37117746.419   193281821.318         204.915          30.000  
C03  36037710.512   187657807.072         172.012          35.000  
C06  38525625.165   200613020.648        1679.506          31.000  
C07  37589169.759   195736656.310       -1296.377          33.000  
C08  37385261.422   194674816.227           2.172          33.000  
C09  40147100.341   209056485.391        1352.259          25.000  
C10  36824341.639   191753976.109       -1054.288          34.000  
C13  37315836.384   194313319.084         -65.133          32.000  
C16  39249064.238   204380170.316        1780.074          31.000  
C19  25354012.982   132024955.470       -2733.040          32.000  
C21  22764604.192   118541246.420        2377.975          38.000  
C22  22156777.982   115376133.676        -597.391          41.000  
C26  26045088.560   135623605.897       -1620.934          29.000  
C34  25725653.701   133960156.267        2531.851          26.000  
C35  23530259.740   122528244.252        -786.736          37.000  
E04                                                                                                                                  24486317.075    96089578.243         585.181          37.000  
E09                                                                                                                                  23658524.444    92841146.174        2110.390          33.000  
E12                                                                                                                                  24145001.563    94750177.208        -399.635          30.000  
E19                                                                                                                                  27333968.887   107264361.440       -1244.089          25.000  
E24                                                                                                                                  24708223.753    96960368.179       -1778.643          32.000  
E25                                                                                                                                  25767391.406   101116766.005        -707.982          32.000  
G02  22527412.297   118382300.266         793.259          29.000  
G04  25022292.028   131493089.929       -1470.947          24.000  
G05  21616056.416   113593158.565        2466.647          38.000  
G06  21741556.134   114252649.649        -376.276          38.000    21741557.033    85318551.158        -280.579          38.000  
G09                                                                  22915788.030    89926483.176         -23.414          35.000  
G12  22772879.663   119672277.911        1693.932          30.000  
G17  21418059.986   112552671.226        -946.135          37.000  
G19  20630078.294   108411816.299        -298.028          38.000  
G28  23716245.885   124629713.250       -3212.729          30.000  
J01  38050492.492   199956695.789        -525.161          37.000    38050492.492   149318328.524        -392.032          36.000  
J02  36905488.562   193939682.464        -445.433          28.000    36905500.554   144825120.481        -330.984          31.000  
J03  37947543.462   199415678.042        1274.428          38.000    37947541.664   148914318.977         952.208          38.000  
R05  23740483.505   126906490.953       -3772.514          22.000  
R06  19640936.463   104807697.085        -739.820          25.000  
R07  20283877.963   108581187.506        3170.195          31.000  
R08  24089090.869   128995987.9281       4591.204          22.000  
R12  23343940.226   124699139.4891       -136.846          25.000  
R21  20856860.496   111609273.790        1218.995          30.000  
> 2020  6 15  8 17 25.0000187  0 37
C01  37486475.853   195201907.159         171.853          33.000  
C03  36037675.137   187657633.511         173.916          35.000  
C06  38525301.988   200611340.442        1680.492          30.000  
C07  37589418.587   195737951.546       -1294.438          32.000  
C08  37385260.822   194674813.236           3.945          33.000  
C09  40146841.620   209055132.835        1352.600          22.000  
C10  36824543.699   191755029.599       -1052.869          33.000  
C13  37315848.975   194313382.758         -62.799          31.000  
C16  39248723.074   204378389.782        1781.070          31.000  
C19  25354537.619   132027687.969       -2732.131          30.000  
C21  22764147.908   118538866.742        2380.119          38.000  
C22  22156892.203   115376728.964        -594.306          40.000  
C26  26045399.445   135625226.327       -1620.206          29.000  
C35  23530414.133   122529030.171        -785.152          37.000  
E04                                                                                                                                  24486168.079    96088992.593         586.187          36.000  
E09                                                                                                                                  23657988.116    92839035.616        2111.255          33.000  
E12                                                                                                                                  24145103.792    94750574.923        -397.982          29.000  
E19                                                                                                                                  27334286.068   107265603.094       -1241.677          23.000  
E24                                                                                                                                  24708677.339    96962146.193       -1777.114          31.000  
E25                                                                                                                                  25767572.481   101117473.337        -707.301          31.000  
G02  22527261.501   118381505.690         795.084          28.000  
G05  21615586.941   113590690.962        2467.915          35.000  
G06  21741627.185   114253025.292        -375.789          35.000    21741628.983    85318831.255        -279.827          37.000  
G09                                                                  22915794.925    89926506.319         -22.693          35.000  
G12  22772557.387   119670583.181        1695.274          28.000  
G17  21418238.062   112553616.297        -945.233          35.000  
G19  20630134.055   108412113.870        -297.986          36.000  
G28  23716856.862   124632924.082       -3209.446          29.000  
J01  38050592.023   199957220.400        -524.365          35.000    38050592.623   149318720.301        -391.406          36.000  
J02  36905572.204   193940127.072        -444.699          27.000    36905584.795   144825451.275        -329.790          31.000  
J03  37947299.731   199414401.752        1276.612          36.000    37947299.731   148913366.322         953.426          37.000  
R05  23741191.015   126910273.002       -3771.470          21.000  
R06  19641073.768   104808436.735        -739.511          29.000  
R07  20283285.274   108578014.745        3171.117          34.000  
R08  24088241.258   128991438.875        4592.232          22.000  
R12  23343948.321   124699182.366        -136.972          25.000  
R21  20856634.153   111608063.114        1220.174          34.000  
> 2020  6 15  8 17 26.0000189  0 37
C01  37486502.834   195202047.020         172.532          35.000  
C03  36037701.818   187657771.737         174.065          36.000  
C06  38525038.771   200609971.611        1681.157          31.000  
C07  37589727.673   195739557.670       -1293.656          32.000  
C08  37385321.680   194675120.835           5.086          33.000  
C09  40146643.757   209054092.200        1353.518          25.000  
C10  36824806.917   191756394.237       -1051.867          33.000  
C13  37315920.925   194313757.113         -61.754          31.000  
C16  39248440.670   204376919.769        1782.588          31.000  
C19  25355122.514   132030731.128       -2730.058          31.000  
C21  22763751.882   118536799.498        2379.374          39.000  
C22  22157068.181   115377636.253        -595.625          41.000  
C26  26045770.888   135627157.994       -1619.360          29.000  
C34  25724738.434   133955403.8641       2533.187          28.000  
C35  23530626.386   122530127.594        -784.514          37.000  
E04                                                                                                                                  24486079.040    96088642.299         585.526          36.000  
E09                                                                                                                                  23657510.546    92837159.782        2111.242          32.000  
E12                                                                                                                                  24145263.882    94751206.632        -396.193          28.000  
E19                                                                                                                                  27334662.307   107267080.673       -1243.816          23.000  
E24                                                                                                                                  24709189.984    96964159.000       -1776.323          31.000  
E25                                                                                                                                  25767812.615   101118416.407        -708.225          31.000  
G02  22527169.465   118381024.592         796.319          24.000  
G05  21615177.724   113588537.437        2468.706          33.000  
G06  21741757.894   114253715.433        -374.526          32.000    21741760.592    85319346.390        -279.934          38.000  
G09  22915853.984   120423639.6601        -30.714          28.000    22915860.580    89926763.468         -21.676          34.000  
G12  22772293.869   119669202.236        1696.274          22.000  
G17  21418476.397   112554876.020        -944.495          32.000  
G19  20630250.075   108412725.847        -296.083          31.000  
G28  23717528.697   124636447.982       -3209.164          25.000  
J01  38050750.014   199958059.723        -524.304          31.000    38050752.412   149319346.366        -390.071          35.000  
J02  36905718.803   193940885.417        -442.561          24.000    36905728.696   144826016.242        -328.677          30.000  
J03  37947116.858   199413440.136        1276.760          32.000    37947116.858   148912647.973         952.181          37.000  
R05  23741950.690   126914333.132       -3771.366          26.000  
R06  19641271.930   104809496.246        -739.635          33.000  
R07  20282753.742   108575169.387        3171.277          36.000  
R08  24087444.109   128987170.149        4595.227          25.000  
R21  20856467.468   111607170.491        1220.622          35.000  
> 2020  6 15  8 17 27.0000189  0 39
C01  37486469.557   195201874.130         172.988          35.000  
C02  37117688.859   193281514.4241        207.975          32.000  
C03  36037669.141   187657597.465         174.454          37.000  
C05  94213326.771                        -573.893          26.000  
C06  38524715.594   200608289.795        1681.880          32.000  
C07  37589975.302   195740851.306       -1293.887          33.000  
C08  37385321.381   194675115.745           4.998          34.000  
C09  40146384.436   209052738.311        1353.978          25.000  
C10  36825009.576   191757446.155       -1052.228          35.000  
C13  37315932.617   194313818.413         -61.446          33.000  
C16  39248097.707   204375137.298        1782.223          32.000  
C19  25355647.451   132033461.852       -2731.095          32.000  
C21  22763293.500   118534420.813        2378.386          40.000  
C22  22157182.102   115378233.044        -597.231          42.000  
C24  26151226.782   136176275.3991      -1373.311          20.000  
C26  26046082.972   135628777.041       -1618.827          30.000  
C34  25724253.970   133952870.048        2533.941          28.000  
C35  23530775.083   122530913.223        -785.461          38.000  
E04                                                                                                                                  24485929.744    96088056.872         585.427          35.000  
E09                                                                                                                                  23656972.419    92835048.914        2111.326          31.000  
E12                                                                                                                                  24145363.713    94751603.148        -396.526          28.000  
E19                                                                                                                                  27334979.487   107268325.814       -1245.088          22.000  
E24                                                                                                                                  24709642.371    96965935.345       -1776.050          31.000  
E25                                                                                                                                  25767992.790   101119125.473        -708.402          30.000  
G05  21614708.249   113586068.944        2468.059          38.000  
G06  21741828.645   114254089.900        -374.699          38.000    21741831.643    85319626.415        -280.305          36.000  
G09                                                                  22915866.576    89926786.472         -22.856          32.000  
G12  22771972.192   119667506.730        1694.777          29.000  
G17  21418654.774   112555820.777        -945.213          38.000  
G19  20630304.637   108413022.023        -296.614          38.000  
G28  23718140.573   124639657.441       -3209.755          30.000  
J01  38050848.346   199958583.705        -523.807          38.000    38050851.943   149319736.930        -391.588          33.000  
J02  36905803.344   193941327.690        -442.457          27.000    36905812.638   144826345.606        -331.497          29.000  
J03  37946873.726   199412163.519        1276.435          38.000    37946874.026   148911695.417         953.263          35.000  
R05  23742650.705   126918075.534       -3771.690          26.000  
R06  19641409.835   104810236.127        -740.303          33.000  
R07  20282162.251   108572003.407        3170.519          34.000  
R08  24086593.598   128982615.672        4595.805          23.000  
R21  20856239.926   111605952.834        1220.341          34.000  
> 2020  6 15  8 17 28.0000192  0 37
C01  37486526.518   195202169.135         173.364          36.000  
C02  37117737.725   193281774.388         208.686          34.000  
C03  36037725.802   187657890.343         175.974          38.000  
C06  38524482.356   200607076.621        1681.534          33.000  
C07  37590312.868   195742613.425       -1293.887          34.000  
C08  37385409.819   194675578.610           5.557          35.000  
C09  40146214.754   209051852.238        1354.952          27.000  
C10  36825301.274   191758966.363       -1051.778          36.000  
C12  23497119.782   122355667.4761       2155.309          20.000  
C13  37316034.547   194314348.129         -61.412          33.000  
C16  39247844.982   204373823.394        1782.559          32.000  
C19  25356261.425   132036661.138       -2730.775          33.000  
C21  22762925.055   118532510.032        2379.442          40.000  
C22  22157383.263   115379297.717        -595.911          43.000  
C26  26046483.794   135630863.850       -1618.189          31.000  
C34  25723859.443   133950803.768        2535.746          29.000  
C35  23531015.217   122532166.338        -784.532          39.000  
E04                                                                                                                                  24485869.785    96087824.091         585.645          36.000  
E09                                                                                                                                  23656523.929    92833291.034        2110.398          31.000  
E12                                                                                                                                  24145554.381    94752352.803        -397.351          28.000  
E19                                                                                                                                  27335386.006   107269923.889       -1245.199          22.000  
E24                                                                                                                                  24710184.395    96968064.803       -1776.868          30.000  
E25                                                                                                                                  25768262.903   101120185.947        -707.204          30.000  
G05  21614328.712   113584073.841        2467.644          40.000  
G06  21741989.334   114254936.936        -374.239          40.000    21741992.032    85320259.275        -279.417          36.000  
G09                                                                  22915961.910    89927162.614         -23.443          34.000  
G17  21418923.088   112557238.667        -945.343          40.000  
G28  23718840.588   124643339.753       -3209.534          31.000  
J01                                                                  38051041.412   149320481.486        -390.934          34.000  
J02  36905978.423   193942241.719        -440.306          27.000    36905985.618   144827028.216        -328.700          29.000  
J03  37946720.832   199411359.445        1276.691          40.000    37946719.932   148911094.493         954.167          36.000  
R05  23743445.755   126922325.183       -3771.739          25.000  
R06  19641637.078   104811456.854        -741.545          32.000  
R07  20281660.998   108569319.430        3170.075          35.000  
R08  24085820.733   128978476.428        4593.374          22.000  
R12  23344182.159   124700431.2901       -138.114          25.000  
R21  20856101.721   111605213.634        1220.543          33.000  
> 2020  6 15  8 17 29.0000192  0 36
C01  37486492.341   195201995.420         173.740          35.000  
C02  37117697.253   193281565.409         208.861          31.000  
C03  36037690.426   187657714.044         176.401          37.000  
C06  38524159.180   200605395.138        1681.127          33.000  
C07  37590561.995   195743906.709       -1293.648          35.000  
C08  37385407.721   194675572.505           6.051          36.000  
C09  40145956.033   209050497.783        1353.347          27.000  
C10  36825503.035   191760017.886       -1052.085          37.000  
C12  23496702.771   122353512.015        2157.082          21.000  
C13  37316046.539   194314409.660         -61.990          34.000  
C16  39247502.320   204372040.230        1783.270          33.000  
C19  25356786.662   132039391.980       -2731.030          33.000  
C21  22762469.670   118530131.503        2378.107          42.000  
C22  22157497.783   115379894.137        -597.564          43.000  
C26  26046794.979   135632481.938       -1618.288          31.000  
C34  25723376.777   133948267.679        2536.038          28.000  
C35  23531167.212   122532952.433        -787.019          40.000  
E04                                                                                                                                  24485721.388    96087238.742         584.898          38.000  
E09                                                                                                                                  23655987.001    92831180.347        2110.649          33.000  
E12                                                                                                                                  24145657.209    94752750.355        -397.204          29.000  
E19                                                                                                                                  27335703.186   107271168.461       -1244.051          26.000  
E24                                                                                                                                  24710638.281    96969841.227       -1777.124          32.000  
E25                                                                                                                                  25768444.277   101120893.937        -708.062          31.000  
G04  25023837.158   131501220.7351      -1468.055          26.000  
G05  21613859.536   113581606.484        2466.544          40.000  
G06  21742062.184   114255311.271        -374.871          40.000    21742064.582    85320538.670        -280.024          38.000  
G09                                                                  22915968.805    89927186.258         -23.963          36.000  
G12  22771419.374   119664589.9961       1694.519          31.000  
G28  23719452.465   124646549.099       -3209.978          32.000  
J01                                                                  38051141.543   149320872.366        -391.082          36.000  
J02  36906062.365   193942682.090        -440.523          29.000    36906070.759   144827357.379        -329.820          31.000  
J03  37946477.101   199410082.610        1276.163          40.000    37946477.400   148910140.315         954.146          38.000  
R05  23744154.764   126926115.610       -3771.496          24.000  
R07  20281069.508   108566153.376        3169.540          32.000  
R12  23344209.440   124700577.197        -138.900          25.000  
R21  20855871.481   111603982.051        1220.396          30.000  
> 2020  6 15  8 17 30.0000192  0 39
C01  37486458.165   195201821.536         173.622          35.000  
C02  37117656.781   193281356.886         208.552          30.000  
C03  36037657.149   187657537.897         175.566          37.000  
C06  38523835.404   200603714.132        1680.342          31.000  
C07  37590810.823   195745201.123       -1296.193          32.000  
C08  37385406.222   194675567.344           4.168          33.000  
C09  40145697.012   209049143.882        1353.468          24.000  
C10  36825704.195   191761070.451       -1053.496          33.000  
C12  23496284.860   122351355.948        2154.561          21.000  
C13  37316058.830   194314472.001         -63.338          31.000  
C16  39247159.357   204370257.336        1781.560          32.000  
C19  25357310.999   132042123.576       -2732.586          31.000  
C21  22762012.487   118527755.760        2374.074          38.000  
C22  22157611.405   115380493.850        -601.927          41.000  
C26  26047105.564   135634100.855       -1619.835          29.000  
C35  23531318.607   122533741.399        -790.166          37.000  
E04                                                                                                                                  24485572.991    96086655.070         581.476          40.000  
E09                                                                                                                                  23655450.073    92829071.146        2107.760          35.000  
E12                                                                                                                                  24145759.439    94753148.559        -399.355          32.000  
E19                                                                                                                                  27336020.667   107272413.753       -1247.090          27.000  
E24                                                                                                                                  24711092.167    96971619.343       -1779.717          34.000  
E25                                                                                                                                  25768625.951   101121603.538        -710.983          34.000  
G02  22526649.025   118378308.2811        795.656          29.000  
G04  25024116.565   131502689.352       -1470.683          25.000  
G05  21613388.263   113579142.521        2463.178          37.000  
G06  21742133.534   114255688.481        -378.469          37.000    21742136.532    85320820.244        -283.009          41.000  
G09  22915970.004   120424241.4721        -35.226          32.000    22915976.600    89927211.737         -26.944          38.000  
G12  22771098.596   119662896.095        1693.360          30.000  
G17  21419286.437   112559132.2971       -950.115          37.000  
G19  20630566.356   108414388.7391       -302.074          37.000  
G28  23720063.142   124649759.520       -3211.640          29.000  
J01  38051241.674   199960629.3091       -527.748          37.000    38051241.674   149321264.938        -394.554          39.000  
J02                                                                  36906155.900   144827687.918        -331.682          33.000  
J03  37946231.870   199408807.810        1274.269          38.000    37946234.868   148909187.299         951.613          40.000  
R05  23744861.375   126929893.266       -3773.967          23.000  
R06  19641911.687   104812943.6201       -744.352          25.000  
R07  20280476.518   108562978.908        3166.702          34.000  
R08  24084114.914   128969342.5701       4593.559          24.000  
R21  20855645.137   111602770.501        1218.279          32.000  
> 2020  6 15  8 17 31.0000192  0 39
C01  37486424.588   195201647.893         173.518          34.000  
C02  37117618.407   193281149.701         206.738          33.000  
C03  36037626.570   187657363.681         173.077          36.000  
C04  38454136.955   200240724.6281        164.365          32.000  
C06  38523513.427   200602034.201        1679.603          32.000  
C07  37591059.651   195746497.922       -1297.447          33.000  
C08  37385407.121   194675564.364           2.500          34.000  
C09  40145436.193   209047790.369        1353.256          25.000  
C10  36825906.855   191762124.917       -1055.189          34.000  
C12  23495868.749   122349202.374        2153.031          21.000  
C13  37316071.122   194314536.231         -64.673          32.000  
C16  39246818.493   204368476.559        1779.993          32.000  
C19  25357836.535   132044857.067       -2734.038          32.000  
C21  22761558.301   118525380.964        2376.070          39.000  
C22  22157729.823   115381095.000        -599.534          41.000  
C26  26047417.648   135635721.541       -1620.926          30.000  
C35  23531469.403   122534531.121        -789.141          37.000  
E04                                                                                                                                  24485423.694    96086072.625         582.962          38.000  
E09                                                                                                                                  23654912.245    92826963.378        2107.607          34.000  
E12                                                                                                                                  24145861.068    94753548.000        -399.176          31.000  
E24                                                                                                                                  24711544.853    96973398.793       -1779.022          33.000  
E25                                                                                                                                  25768806.726   101122315.857        -713.141          33.000  
G02  22526496.131   118377513.698         793.778          30.000  
G04  25024396.571   131504160.327       -1472.678          25.000  
G05  21612919.687   113576678.988        2464.233          38.000  
G06  21742207.283   114256065.940        -376.355          38.000    21742207.583    85321102.419        -280.300          39.000  
G09  22915978.398   120424277.798         -37.154          34.000    22915982.895    89927238.797         -25.699          36.000  
G12  22770776.919   119661204.279        1690.681          29.000  
G17  21419465.113   112560082.043        -949.410          37.000  
G19  20630627.214   108414690.315        -300.695          38.000  
G28  23720675.918   124652972.180       -3213.092          30.000  
J01  38051340.605   199961156.611        -526.658          37.000    38051340.905   149321658.491        -392.811          37.000  
J02  36906227.850   193943567.8711       -445.191          28.000    36906240.142   144828020.980        -331.742          32.000  
J03  37945989.938   199407533.380        1275.995          38.000    37945991.437   148908235.446         952.495          38.000  
R05  23745570.683   126933684.097       -3775.454          26.000  
R06  19642047.493   104813688.955        -746.172          32.000  
R07  20279885.028   108559812.992        3165.152          37.000  
R08  24083261.405   128964772.237        4592.840          25.000  
R21  20855416.695   111601548.014        1216.987          35.000  
> 2020  6 15  8 17 32.0000195  0 39
C01  37486481.249   195201942.599         173.481          37.000  
C02  37117668.773   193281411.513         206.195          32.000  
C03  36037684.730   187657658.876         172.922          39.000  
C06  38523281.687   200600822.729        1679.295          33.000  
C07  37591398.416   195748263.480       -1297.454          36.000  
C08  37385496.459   194676030.014           2.632          36.000  
C09  40145265.611   209046905.448        1352.705          27.000  
C10  36826199.752   191763648.039       -1055.150          37.000  
C12  23495545.272   122347516.442        2154.437          21.000  
C13  37316173.051   194315068.702         -63.941          34.000  
C16  39246566.667   204367164.358        1780.452          34.000  
C19  25358452.309   132048059.405       -2734.089          34.000  
C21  22761191.955   118523473.793        2374.076          42.000  
C22  22157935.181   115382163.688        -600.894          44.000  
C26  26047819.370   135637809.990       -1619.728          31.000  
C34  25722004.927   133941134.7811       2531.620          30.000  
C35  23531710.736   122535788.242        -789.227          40.000  
E04                                                                                                                                  24485365.534    96085843.070         581.793          37.000  
E09                                                                                                                                  23654464.355    92825208.245        2107.415          33.000  
E12                                                                                                                                  24146052.036    94754299.773        -398.312          29.000  
E24                                                                                                                                  24712087.778    96975530.207       -1779.098          32.000  
E25                                                                                                                                  25769077.439   101123380.495        -710.993          31.000  
G02  22526432.575   118377192.505         793.489          29.000  
G04  25024768.313   131506106.103       -1473.372          25.000  
G05  21612536.252   113574687.372        2463.481          37.000  
G06  21742366.473   114256914.704        -376.740          36.000    21742369.471    85321736.293        -281.981          38.000  
G09  22916075.831   120424787.925         -37.973          33.000    22916079.129    89927617.919         -27.559          35.000  
G12  22770544.880   119659986.894        1689.033          28.000  
G17  21419734.027   112561503.789        -949.309          36.000  
G19  20630773.213   108415463.808        -301.238          36.000  
G28  23721378.631   124656658.337       -3213.858          28.000  
J01  38051528.275   199962154.285        -524.403          36.000    38051530.673   149322403.774        -392.380          36.000  
J02  36906400.231   193944484.947        -444.744          27.000    36906414.321   144828705.402        -331.568          31.000  
J03  37945837.343   199406730.714        1274.574          36.000    37945839.442   148907635.820         952.324          38.000  
R05  23746369.031   126937952.264       -3775.459          26.000  
R06  19642273.237   104814915.636        -747.336          32.000  
R07  20279383.475   108557128.427        3164.514          36.000  
R08  24082488.840   128960634.528        4592.859          26.000  
R21  20855281.189   111600823.063        1217.079          33.000  
> 2020  6 15  8 17 33.0000195  0 34
C01  37486447.672   195201769.163         173.252          35.000  
C02  37117628.900   193281205.590         205.414          31.000  
C03  36037650.554   187657486.287         172.541          37.000  
C06  38522957.911   200599144.285        1678.153          32.000  
C07  37591646.345   195749561.290       -1297.613          34.000  
C08  37385494.661   194676027.372           2.819          35.000  
C09  40145004.791   209045553.026        1351.420          25.000  
C10  36826400.913   191764703.461       -1056.319          35.000  
C13  37316184.143   194315133.181         -65.108          33.000  
C16  39246224.904   204365384.290        1779.439          32.000  
C19  25358977.545   132050793.640       -2734.868          31.000  
C21  22760729.375   118521100.113        2373.086          40.000  
C22  22158047.003   115382765.587        -602.826          42.000  
C26  26048129.655   135639429.433       -1619.871          30.000  
C35  23531857.634   122536577.847        -789.710          38.000  
E04                                                                                                                                  24485217.437    96085261.731         581.013          39.000  
E09                                                                                                                                  23653927.127    92823100.652        2107.449          35.000  
E12                                                                                                                                  24146153.366    94754698.478        -399.310          31.000  
E24                                                                                                                                  24712540.764    96977309.301       -1778.965          34.000  
E25                                                                                                                                  25769258.214   101124092.222        -712.001          34.000  
G02  22526282.979   118376399.235         793.037          31.000  
G04  25025051.018   131507579.820       -1474.548          27.000  
G05  21612068.876   113572224.191        2462.323          39.000  
G06  21742437.224   114257291.755        -377.702          39.000    21742441.421    85322019.053        -282.903          40.000  
G09  22916083.925   120424826.518         -39.083          34.000    22916086.623    89927646.253         -29.370          37.000  
G19  20630828.974   108415765.369        -302.353          39.000  
G28  23721991.107   124659872.285       -3214.238          31.000  
J01                                                                  38051631.104   149322796.644        -393.860          38.000  
J02  36906484.772   193944930.064        -445.704          28.000    36906499.162   144829037.582        -332.725          33.000  
J03  37945595.411   199405456.213        1274.092          39.000    37945597.210   148906684.780         950.274          39.000  
R05  23747087.334   126941791.373       -3776.654          24.000  
R07  20278791.685   108553960.598        3163.125          34.000  
R08  24081629.935   128956035.480        4588.281          20.000  
R21  20855055.146   111599613.177        1216.406          31.000  
> 2020  6 15  8 17 34.0000197  0 35
C01  37486473.454   195201908.207         172.846          32.000  
C03  36037675.736   187657626.103         172.191          34.000  
C06  38522694.693   200597778.949        1677.745          30.000  
C07  37591954.232   195751171.573       -1298.470          32.000  
C08  37385552.221   194676336.899           2.324          33.000  
C09  40144806.329   209044514.555        1351.141          24.000  
C10  36826661.733   191766072.146       -1056.690          33.000  
C13  37316255.794   194315510.599         -65.535          31.000  
C16  39245942.799   204363916.284        1780.690          30.000  
C19  25359562.440   132053840.761       -2735.452          29.000  
C21  22760335.448   118519040.293        2372.386          38.000  
C22  22158221.482   115383681.345        -603.496          40.000  
C26  26048498.100   135641361.784       -1621.272          28.000  
C34  25721091.459   133936385.0651       2530.813          26.000  
C35  23532070.187   122537681.250        -791.248          36.000  
E04                                                                                                                                  24485128.998    96084916.397         580.885          39.000  
E09                                                                                                                                  23653449.857    92821229.275        2106.579          35.000  
E12                                                                                                                                  24146314.954    94755333.783        -400.794          31.000  
E24                                                                                                                                  24713054.009    96979323.601       -1779.494          34.000  
E25                                                                                                                                  25769499.547   101125039.853        -712.340          34.000  
G02  22526193.041   118375921.258         793.011          32.000  
G04  25025392.481   131509370.789       -1476.642          30.000  
G05  21611666.854   113570077.635        2460.885          42.000  
G06                                                                  21742572.730    85322536.811        -282.906          40.000  
G09  22916152.877   120425181.174         -39.998          37.000    22916153.777    89927911.111         -29.671          37.000  
G12  22769960.884   119656927.2311       1686.190          31.000  
G28  23722664.141   124663401.673       -3214.545          34.000  
J01                                                                  38051791.193   149323425.700        -393.305          38.000  
J02  36906633.170   193945691.250        -446.217          31.000    36906643.662   144829605.532        -332.990          33.000  
J03  37945415.535   199404497.962        1272.800          42.000    37945414.336   148905969.165         950.756          40.000  
R05  23747853.303   126945885.989       -3774.769          21.000  
R06  19642605.107   104816732.4171       -749.433          28.000  
R07  20278265.849   108551145.140        3161.800          31.000  
R08  24080835.484   128951780.909        4591.263          20.000  
R21  20854878.868   111598670.049        1215.498          27.000  
> 2020  6 15  8 17 35.0000197  0 34
C01  37486440.477   195201735.660         172.166          30.000  
C03  36037642.759   187657453.958         172.024          32.000  
C06  38522373.316   200596100.649        1678.079          27.000  
C07  37592202.760   195752469.910       -1298.373          28.000  
C08  37385550.422   194676334.280           2.369          30.000  
C09  40144547.008   209043163.997        1351.017          21.000  
C10  36826864.692   191767128.569       -1056.409          30.000  
C13  37316267.186   194315576.031         -66.012          28.000  
C16  39245601.635   204362136.682        1779.260          27.000  
C19  25360086.178   132056576.514       -2736.088          28.000  
C21  22759880.363   118516667.206        2374.168          36.000  
C22  22158335.703   115384285.045        -604.500          38.000  
C26  26048809.285   135642982.560       -1620.410          24.000  
C35  23532221.282   122538472.942        -791.974          33.000  
E04                                                                                                                                  24484981.200    96084335.814         580.131          39.000  
E09                                                                                                                                  23652912.929    92819122.307        2107.097          34.000  
E12                                                                                                                                  24146416.883    94755734.009        -399.579          31.000  
E24                                                                                                                                  24713507.295    96981103.118       -1780.166          33.000  
E25                                                                                                                                  25769680.621   101125752.506        -713.020          33.000  
G02  22526044.044   118375128.127         793.024          31.000  
G04  25025672.188   131510847.847       -1477.489          28.000  
G05  21611199.778   113567616.834        2460.304          41.000  
G06  21742645.580   114258363.4141       -378.125          41.000    21742645.280    85322819.408        -282.899          39.000  
G09  22916160.972   120425221.489         -40.659          36.000    22916161.571    89927940.954         -29.678          36.000  
G12  22769638.907   119655241.452        1685.528          30.000  
G17  21420343.805   112564671.1131       -952.377          40.000  
G19  20631009.749   108416687.1261       -304.116          40.000  
G28  23723277.517   124666616.034       -3214.270          33.000  
J01                                                                  38051892.223   149323819.301        -393.927          37.000  
J02  36906719.210   193946137.244        -446.148          29.000    36906728.204   144829938.914        -333.098          32.000  
J03  37945173.903   199403224.070        1273.675          41.000    37945172.104   148905017.934         951.135          39.000  
R06  19642742.412   104817482.978        -751.857          28.000  
R07  20277679.155   108548004.606        3161.155          29.000  
R21  20854646.229   111597425.548        1215.323          25.000  
> 2020  6 15  8 17 36.0000200  0 34
C01  37486496.838   195202031.832         171.953          30.000  
C03  36037698.221   187657750.272         171.899          32.000  
C06  38522138.578   200594889.934        1679.021          27.000  
C07  37592540.326   195754236.962       -1298.864          28.000  
C08  37385637.362   194676800.148           2.141          29.000  
C09  40144375.227   209042282.506        1349.221          22.000  
C10  36827156.090   191768653.051       -1056.161          30.000  
C13  37316366.417   194316109.896         -65.674          28.000  
C16  39245349.510   204360826.828        1777.981          26.000  
C19  25360699.853   132059782.520       -2737.755          27.000  
C21  22759509.819   118514763.782        2370.430          36.000  
C22  22158537.164   115385357.559        -604.677          38.000  
C26  26049210.107   135645071.368       -1621.385          24.000  
C35  23532461.716   122539732.559        -791.071          33.000  
E04                                                                                                                                  24484923.040    96084108.363         580.341          39.000  
E09                                                                                                                                  23652465.639    92817368.596        2105.814          35.000  
E12                                                                                                                                  24146609.050    94756486.347        -399.161          31.000  
E24                                                                                                                                  24714051.118    96983236.135       -1780.268          33.000  
E25                                                                                                                                  25769952.233   101126818.293        -713.185          33.000  
G02  22525983.786   118374807.738         792.988          32.000  
G04  25026043.930   131512798.094       -1477.916          29.000  
G05  21610820.540   113565629.018        2460.188          42.000  
G06  21742809.266   114259214.541        -378.844          41.000    21742806.868    85323455.373        -283.406          39.000  
G09  22916259.903   120425734.907         -41.212          36.000    22916259.004    89928323.621         -30.738          37.000  
G12  22769408.067   119654028.676        1685.162          31.000  
G17  21420618.414   112566096.301        -953.136          41.000  
G19  20631159.346   108417464.892        -305.444          41.000  
J01  38052087.688   199965050.7191       -528.282          41.000    38052082.591   149324565.949        -393.801          38.000  
J02  36906894.888   193947055.859        -446.344          30.000    36906903.582   144830625.424        -334.415          32.000  
J03  37945022.208   199402423.433        1272.904          42.000    37945019.809   148904420.019         950.689          39.000  
R06  19642971.154   104818715.641        -753.012          29.000  
R07  20277177.902   108545321.060        3160.288          30.000  
R12  23344576.386   124702536.8931       -147.120          24.000  
R21  20854508.324   111596687.433        1215.123          27.000  
> 2020  6 15  8 17 37.0000200  0 38
C01  37486463.861   195201860.307         170.760          29.000  
C03  36037663.445   187657578.476         171.638          32.000  
C06  38521815.702   200593210.947        1679.305          27.000  
C07  37592788.254   195755536.525       -1299.252          29.000  
C08  37385634.364   194676798.200           1.602          30.000  
C09  40144115.307   209040932.556        1352.149          21.000  
C10  36827356.652   191769709.866       -1057.161          30.000  
C13  37316377.509   194316175.292         -66.005          28.000  
C16  39245005.648   204359049.126        1776.946          25.000  
C19  25361223.290   132062519.440       -2736.267          26.000  
C21  22759056.233   118512392.632        2372.020          35.000  
C22  22158655.882   115385962.733        -605.652          38.000  
C26  26049520.992   135646692.567       -1621.352          24.000  
C34  25719723.506   133929258.2481       2531.441          24.000  
C35  23532612.811   122540523.560        -791.707          32.000  
E04                                                                                                                                  24484775.243    96083528.659         579.712          38.000  
E09                                                                                                                                  23651929.010    92815262.268        2106.441          34.000  
E12                                                                                                                                  24146710.980    94756885.910        -400.452          31.000  
E24                                                                                                                                  24714504.405    96985016.815       -1781.159          33.000  
E25                                                                                                                                  25770133.908   101127531.954        -714.185          33.000  
G02  22525833.890   118374014.740         792.877          34.000  
G04  25026326.035   131514275.977       -1478.278          29.000  
G05  21610352.564   113563169.861        2458.521          43.000  
G06  21742879.718   114259593.223        -378.540          43.000    21742878.818    85323737.923        -282.612          39.000  
G09  22916267.998   120425776.318         -41.814          38.000    22916266.499    89928354.332         -31.595          36.000  
G12  22769087.289   119652343.691        1684.559          33.000  
G17  21420798.890   112567049.460        -953.594          43.000  
G19  20631217.805   108417770.684        -306.307          42.000  
G28  23724591.807   124673517.1011      -3214.406          35.000  
J01  38052188.118   199965578.822        -528.528          42.000    38052183.322   149324960.437        -395.622          37.000  
J02  36906979.730   193947502.205        -446.934          31.000    36906988.424   144830959.746        -334.268          32.000  
J03  37944779.376   199401150.645        1272.497          43.000    37944776.978   148903469.159         950.621          39.000  
R05  23750056.778   126957664.8731      -3779.280          15.000  
R06  19643109.658   104819469.065        -754.206          26.000  
R07  20276586.711   108542156.973        3159.315          28.000  
R08  24078348.706   128938464.8801       4586.816          17.000  
R12  23344603.367   124702681.946        -148.802          23.000  
R21  20854279.583   111595463.272        1214.703          26.000  
