     2.11           OBSERVATION DATA    M (MIXED)           RINEX VERSION / TYPE
ANDROID_RINEX       UNKN                2020-07-01 11:19:16 PGM / RUN BY / DATE
Generated by Rokubun's android_rinex program                COMMENT
Four doubts or inquiries, reach us at info@rokubun.cat      COMMENT
UNKN                                                        MARKER NAME
UNKN                UNKN                                    OBSERVER / AGENCY
UNKN                UNKN                AndroidOS >7.0      REC # / TYPE / VERS
UNKN                internal                                ANT # / TYPE
        0.0000        0.0000        0.0000                  APPROX POSITION XYZ
        0.0000        0.0000        0.0000                  ANTENNA: DELTA H/E/N
     4    C1    S1    L1    D1                              # / TYPES OF OBSERV
  2017    07    17    11    46    44.000338                 TIME OF FIRST OBS
                                                            END OF HEADER
 17 07 17 11 46 44.000338   0  9G05G16G18G20G21G25G26G29G31
  24903458.402          33.922       34969.225       -1487.736
  22055851.561          30.472      -59093.664        2494.583
  24084851.713          31.965      -61379.113        2593.500
  23049420.127          34.835      -15148.961         632.073
  20971806.831          36.014       -2150.930          83.372
  24621643.301          22.369       80721.502       -3415.577
  20729164.708          35.988      -28692.721        1205.919
  22451353.361          37.710       63768.768       -2699.524
  22078092.265          30.336       65157.883       -2761.987
 17 07 17 11 46 45.000338   0  9G05G16G18G20G21G25G26G29G31
  24903731.817          34.147       36457.001       -1487.881
  22055356.904          29.490      -61588.433        2494.292
  24084371.148          31.563      -63972.305        2593.548
  23049288.819          34.859      -15780.761         631.583
  20971788.544          35.139       -2233.738          82.402
  24622255.778          23.527       84138.503       -3416.904
  20728947.357          34.383      -29899.208        1206.280
  22451870.502          37.192       66468.122       -2699.394
  22078595.617          33.030       67919.687       -2762.071
 17 07 17 11 46 46.000338   0  9G05G16G18G20G21G25G26G29G31
  24904017.817          36.028       37945.147       -1488.067
  22054908.115          26.564      -64082.771        2493.851
  24083872.294          31.681      -66565.745        2593.750
  23049174.900          33.881      -16412.043         630.921
  20971775.652          34.148       -2316.139          81.832
  24622900.629          22.846       87555.577       -3415.833
  20728725.211          35.922      -31105.347        1205.568
  22452377.453          37.248       69167.614       -2699.548
  22079127.447          34.509       70681.672       -2762.096
 17 07 17 11 46 47.000337   0  9G05G16G18G20G21G25G26G29G31
  24904144.078          37.530       39434.281       -1489.534
  22054280.099          28.452      -66576.981        2494.296
  24083220.890          29.754      -69158.672        2592.738
  23048910.529          35.351      -17042.485         630.070
  20971609.317          33.750       -2397.681          80.968
  24623430.112          23.684       90973.194       -3417.605
  20728342.428          37.313      -32310.815        1204.976
  22452756.441          38.184       71867.469       -2699.973
  22079504.934          32.406       73444.485       -2763.161
 17 07 17 11 46 48.000337   0  9G05G16G18G20G21G25G26G29G31
  24904428.582          35.329       40924.868       -1491.437
  22053792.636          26.498      -69069.964        2492.626
  24082722.338          29.132      -71750.763        2591.859
  23048798.407          33.813      -17671.439         628.073
  20971593.725          34.060       -2477.714          79.158
  24624088.457          21.140       94391.840       -3417.466
  20728117.581          36.543      -33515.027        1203.468
  22453265.185          36.906       74568.312       -2701.265
  22080021.177          31.090       76208.424       -2764.515
 17 07 17 11 46 49.000337   0  9G05G16G18G20G21G25G26G29G31
  24904721.781          34.436       42416.527       -1491.841
  22053315.364          27.468      -71562.081        2492.233
  24082236.973          30.292      -74342.117        2591.118
  23048674.593          33.838      -18299.207         627.479
  20971580.236          34.733       -2556.734          78.683
  24624709.628          20.771       97811.649       -3415.556
  20727891.239          37.508      -34718.099        1203.035
  22453786.527          37.773       77269.870       -2701.193
  22080554.809          28.885       78973.602       -2765.954
 17 07 17 11 46 50.000337   0  9G05G16G18G20G21G25G26G29G31
  24904921.315          35.873       43908.758       -1492.374
  22052756.726          26.309      -74053.886        2491.576
  24081668.139          29.714      -76933.623        2592.074
  23048481.402          35.001      -18926.477         626.580
  20971497.666          34.001       -2635.311          77.757
  24625301.892          22.041      101226.493       -3415.646
  20727582.628          35.460      -35920.801        1202.456
  22454224.995          38.055       79971.369       -2701.255
  22081007.372          31.747       81738.818       -2766.010
 17 07 17 11 46 51.000337   0  9G05G16G18G20G21G25G26G29G31
  24905204.619          35.221       45402.298       -1494.337
  22052298.344          28.609      -76546.112        2491.670
  24081179.778          35.537      -79523.984        2589.488
  23048349.194          35.506      -19553.196         626.552
  20971485.076          37.755       -2713.472          78.763
  24625987.817          23.748      104644.122       -3421.998
  20727343.991          34.589      -37123.389        1203.349
  22454740.640          38.439       82672.749       -2701.494
  22081522.712          36.285       84505.132       -2766.288
 17 07 17 11 46 52.000337   0  9G05G16G18G20G21G25G26G29G31
  24905464.239          31.584       46894.270       -1489.473
  22051820.775          34.175      -79040.792        2496.605
  24080688.419          35.227      -82112.505        2592.342
  23048237.971          32.759      -20179.586         622.967
  20971472.485          37.557       -2789.797          75.740
  24626619.179          28.544      108068.453       -3423.111
  20727125.144          40.747      -38327.393        1203.379
  22455267.375          34.904       85367.595       -2701.262
  22082050.947          41.004       87270.902       -2765.275
 17 07 17 11 46 53.000337   0  9G05G16G18G20G21G25G26G29G31
  24905754.437          30.013       48389.210       -1494.273
  22051340.510          40.216      -81532.281        2490.404
  24080254.619          31.071      -84702.589        2587.501
  23048166.321          28.130      -20805.754         625.956
  20971456.296          33.602       -2865.807          76.670
  24627276.925          26.855      111489.511       -3421.076
  20726891.307          41.910      -39528.723        1200.925
  22455771.926          31.818       88068.748       -2702.612
  22082575.283          45.762       90038.468       -2766.750
 17 07 17 11 46 54.000337   0  9G05G16G18G20G21G25G26G29G31
  24906017.830          29.055       49883.780       -1497.791
  22050806.154          38.788      -84021.889        2491.308
  24079612.940          31.394      -87295.432        2589.595
  23047944.947          29.627      -21431.005         623.624
  20971368.630          37.715       -2942.378          75.891
  24627861.093          26.554      114912.785       -3418.802
  20726593.187          38.787      -40729.723        1200.978
  22456235.578          32.711       90771.415       -2702.627
  22083032.042          44.605       92804.941       -2767.970
 17 07 17 11 46 55.000337   0  9G05G16G18G20G21G25G26G29G31
  24906272.656          26.193       51383.268       -1495.063
  22050343.871          34.318      -86512.106        2485.638
  24079128.173          30.692      -89887.495        2589.878
  23047798.051          32.676      -22055.773         623.200
  20971356.341          38.432       -3017.941          75.148
  24628497.555          24.819      118333.851       -3418.719
  20726366.544          34.089      -41930.288        1198.773
  22456735.933          39.122       93473.640       -2702.623
  22083556.980          40.764       95572.519       -2768.651
 17 07 17 11 46 56.000337   0  9G05G16G18G20G21G25G26G29G31
  24906525.378          23.379       52880.104       -1496.204
  22049860.007          29.825      -89002.176        2490.312
  24078628.421          27.827      -92478.162        2592.753
  23047671.838          31.952      -22679.226         624.684
  20971348.545          33.846       -3092.881          77.131
  24629163.992          24.125      121754.702       -3419.443
  20726144.695          33.098      -43130.136        1201.653
  22457250.976          37.924       96176.418       -2700.452
  22084090.908          35.373       98340.734       -2765.814
 17 07 17 11 46 57.000336   0  9G05G16G18G20G21G25G26G29G31
  24906735.409          21.246       54374.157       -1493.546
  22049326.253          26.464      -91494.959        2494.966
  24078077.277          26.740      -95071.652        2594.427
  23047491.835          30.195      -23304.332         622.173
  20971265.076          32.821       -3169.633          73.788
  24629712.487          22.456      125173.491       -3416.769
  20725844.778          33.420      -44331.901        1198.613
  22457687.349          34.667       98877.036       -2703.001
  22084544.972          36.391      101106.967       -2769.317
 17 07 17 11 46 58.000336   0  9G05G16G18G20G21G25G26G29G31
  24907039.697          19.602       55867.288       -1499.848
  22048844.784          26.710      -93983.084        2487.619
  24077586.817          24.103      -97667.218        2588.616
  23047373.418          30.799      -23923.681         619.477
  20971247.391          32.482       -3236.215          68.633
  24630351.946          19.658      128598.608       -3423.840
  20725619.033          31.371      -45527.732        1194.806
  22458201.192          33.559      101583.058       -2705.286
  22085066.607          36.740      103872.402       -2773.094
 17 07 17 11 46 59.000336   0  9G05G16G18G20G21G25G26G29G31
  24907317.304          17.936       57359.106       -1499.336
  22048366.016          30.182      -96469.911        2487.225
  24077096.955          22.800     -100253.831        2587.032
  23047265.793          29.070      -24542.422         618.836
  20971233.601          30.690       -3308.914          75.173
  24631031.575          22.276      132022.754       -3423.159
  20725380.698          32.492      -46723.723        1196.114
  22458703.946          30.161      104288.818       -2704.516
  22085602.337          34.704      106644.545       -2771.568
 17 07 17 11 47 00.000336   0  9G05G16G18G20G21G25G26G29G31
  24907533.028          15.485       58855.138       -1499.955
  22047807.076          27.864      -98959.265        2490.522
  24076527.222          23.946     -102835.777        2587.373
  23047063.606          30.366      -25163.696         621.417
  20971150.132          29.664       -3387.060          73.994
  24631637.028          23.180      135442.614       -3416.002
  20725086.479          33.565      -47921.917        1198.576
  22459160.104          31.552      106991.946       -2701.717
  22086053.399          32.784      109414.137       -2768.711
 17 07 17 11 47 01.000336   0  9G05G16G18G20G21G25G26G29G31
  24907789.952          16.904       60353.164       -1498.562
  22047333.704          27.482     -101448.826        2489.020
  24076016.677          26.080     -105428.984        2590.655
  23046952.985          30.868      -25784.790         621.391
  20971129.746          33.503       -3460.053          72.868
  24632288.480          22.313      138864.769       -3421.301
  20724858.334          34.066      -49120.170        1198.292
  22459682.943          34.318      109694.877       -2702.557
  22086575.937          34.701      112183.763       -2769.509
 17 07 17 11 47 02.000336   0  9G05G16G18G20G21G25G26G29G31
  24908099.039          18.198       61858.269       -1500.533
  22046857.335          25.132     -103938.448        2489.773
  24075501.036          23.800     -108020.444        2594.939
  23046821.376          34.048      -26405.357         620.409
  20971116.854          34.693       -3532.673          72.580
  24632934.229          19.886      142291.611       -3422.131
  20724632.891          35.135      -50318.237        1197.891
  22460183.895          36.105      112397.484       -2702.835
  22087109.870          32.536      114953.753       -2770.525
 17 07 17 11 47 03.000336   0  9G05G16G18G20G21G25G26G29G31
  24908331.550          18.254       63364.420       -1501.603
  22046321.182          24.000     -106427.247        2488.332
  24074967.278          22.428     -110610.116        2589.288
  23046633.581          34.065      -27024.430         618.697
  20971039.982          33.621       -3603.802          71.051
  24633481.826          18.905      145717.377       -3422.761
  20724327.276          32.523      -51514.908        1196.353
  22460630.459          34.830      115101.264       -2704.169
  22087554.336          30.892      117724.923       -2772.165
 17 07 17 11 47 04.000336   0  9G05G16G18G20G21G25G26G29G31
  24908602.565          14.431       64863.583       -1497.936
  22045830.721          21.735     -108914.912        2481.187
  24074490.306          26.118     -113199.982        2589.893
  23046522.654          33.635      -27642.688         618.087
  20971018.396          31.638       -3673.936          70.186
  24634145.266          16.178      149140.458       -3422.221
  20724105.733          32.269      -52710.842        1195.428
  22461150.899          32.435      117805.383       -2703.974
  22088087.366          28.274      120496.716       -2771.289
 17 07 17 11 47 05.000336   0  9G05G16G18G20G21G25G26G29G31
  24908898.159          15.916       66356.079       -1500.197
  22045427.198          21.258     -111402.764        2486.021
  24073987.256          28.208     -115789.871        2589.646
  23046406.034          33.689      -28260.525         617.339
  20971009.405          31.579       -3743.870          69.381
  24634794.915          13.346      152565.159       -3421.253
  20723871.594          30.381      -53906.587        1195.125
  22461654.852          34.727      120509.456       -2704.343
  22088629.989          27.066      123268.732       -2772.535
 17 07 17 11 47 06.000336   0  9G05G16G18G20G21G25G26G29G31
  24909082.407          14.976       67854.323       -1499.721
  22044847.576          21.636     -113890.244        2488.414
  24073437.910          28.326     -118379.613        2589.677
  23046212.546          32.735      -28877.717         616.838
  20970926.533          30.794       -3813.224          68.851
  24635374.289          16.766      155990.796       -3422.441
  20723575.874          30.410      -55101.803        1194.791
  22462110.709          35.404      123213.723       -2704.611
  22089069.063          26.331      126041.124       -2772.335
 17 07 17 11 47 07.000336   0  9G05G16G18G20G21G25G26G29G31
  24909347.122          14.340       69357.319       -1497.843
  22044379.897          25.294     -116377.694        2487.736
  24072936.657          27.476     -120969.192        2589.481
  23046098.923          30.808      -29494.185         616.317
  20970908.547          30.525       -3881.980          68.548
  24636000.856          14.083      159416.362       -3420.909
  20723351.626          28.476      -56296.327        1193.691
  22462621.856          34.379      125918.239       -2704.439
  22089613.785          22.636      128814.439       -2771.532
 17 07 17 11 47 08.000336   0  9G05G16G18G20G21G25G26G29G31
  24909619.935          17.022       70852.675       -1497.206
  22043916.419          27.260     -118864.432        2486.933
  24072460.589          24.955     -123558.514        2587.789
  23045979.307          31.678      -30109.929         615.377
  20970891.157          29.381       -3950.058          67.332
  24636625.627          16.860      162837.654       -3422.931
  20723094.104          24.332      -57490.580        1195.633
  22463134.203          35.059      128622.953       -2704.791
  22090138.421          21.908      131592.801       -2775.350
 17 07 17 11 47 09.000335   0  9G05G16G18G20G21G25G26G29G31
  24909826.964          19.180       72354.864       -1501.939
  22043369.172          26.770     -121351.154        2487.150
  24071882.463          26.036     -126147.877        2588.489
  23045784.017          29.817      -30724.993         615.037
  20970813.090          29.970       -4017.571          66.587
  24637252.966          16.040      166251.711       -3422.154
  20722814.875          25.452      -58684.119        1192.192
  22463587.364          32.735      131327.862       -2704.826
  22090571.797          28.207      134369.773       -2774.804
 17 07 17 11 47 10.000335   0  9G05G16G18G20G21G25G26G29G31
  24910113.867          18.549       73862.867       -1503.441
  22042885.308          25.349     -123837.435        2485.828
  24071375.512          25.477     -128736.975        2589.784
  23045668.893          33.289      -31339.400         614.180
  20970790.304          31.062       -4084.416          66.880
  24637914.308          20.956      169675.808       -3422.730
  20722609.516          24.601      -59877.224        1192.826
  22464081.122          35.882      134032.925       -2704.871
  22091115.018          34.685      137144.447       -2774.938
 17 07 17 11 47 11.000335   0  9G05G16G18G20G21G25G26G29G31
  24910381.283          15.565       75373.561       -1503.405
  22042414.933          23.915     -126323.468        2486.466
  24070887.151          26.995     -131325.909        2588.772
  23045561.570          34.318      -31953.058         613.150
  20970785.208          31.164       -4150.501          66.108
  24638577.150          21.447      173100.046       -3421.166
  20722352.893          24.484      -61070.018        1190.354
  22464600.362          34.078      136738.418       -2705.668
  22091642.054          35.696      139919.456       -2775.075
 17 07 17 11 47 12.000335   0  9G05G16G18G20G21G25G26G29G31
  24910661.761          21.748       76881.514       -1506.697
  22041848.800          24.198     -128803.705        2487.212
  24070331.213          28.674     -133914.633        2588.746
  23045361.181          32.052      -32565.948         612.474
  20970703.240          33.240       -4216.011          64.990
  24639143.929          22.854      176524.490       -3425.373
  20722078.157          28.358      -62263.341        1190.805
  22465035.535          32.544      139443.877       -2705.792
  22092094.913          36.828      142694.877       -2775.254
 17 07 17 11 47 13.000335   0  9G05G16G18G20G21G25G26G29G31
  24910892.601          22.563       78388.410       -1508.275
  22041390.418          24.294     -131289.069        2490.294
  24069837.751          27.670     -136503.283        2588.924
  23045261.051          33.991      -33178.462         611.982
  20970691.544          32.484       -4280.952          65.108
  24639824.758          20.695      179948.859       -3424.304
  20721842.221          31.865      -63454.864        1191.285
  22465570.062          32.695      142149.709       -2705.818
  22092625.247          36.168      145471.013       -2775.564
 17 07 17 11 47 14.000335   0  9G05G16G18G20G21G25G26G29G31
  24911233.465          23.980       79895.800       -1507.825
  22040934.134          23.391     -133773.969        2485.309
  24069336.201          26.382     -139091.899        2588.263
  23045144.135          33.518      -33790.182         611.232
  20970669.662          31.664       -4345.215          63.927
  24640469.011          23.928      183373.663       -3425.034
  20721612.581          36.778      -64645.914        1190.519
  22466080.611          31.488      144855.666       -2706.072
  22093149.286          32.784      148247.584       -2776.820
 17 07 17 11 47 15.000335   0  9G05G16G18G20G21G25G26G29G31
  24911510.775          23.636       81403.730       -1507.765
  22040460.461          20.756     -136260.449        2479.120
  24068834.948          25.695     -141680.332        2589.032
  23045029.011          33.283      -34401.233         610.405
  20970658.568          33.777       -4409.053          63.409
  24641100.076          24.751      186798.654       -3425.930
  20721388.337          36.480      -65836.512        1189.938
  22466598.054          29.004      147561.842       -2705.497
  22093680.815          35.114      151024.320       -2776.633
 17 07 17 11 47 16.000335   0  9G05G16G18G20G21G25G26G29G31
  24911704.913          24.842       82912.599       -1509.483
  22039882.034          20.476     -138738.489        2479.668
  24068283.801          27.175     -144268.543        2588.363
  23044833.421          32.629      -35011.696         609.796
  20970579.597          37.422       -4472.213          62.663
  24641707.331          21.364      190223.915       -3430.556
  20721093.515          36.243      -67026.565        1189.781
  22467048.514          30.118      150268.287       -2706.665
  22094132.178          36.863      153801.784       -2777.713
 17 07 17 11 47 17.000335   0  9G05G16G18G20G21G25G26G29G31
  24912011.003          25.617       84422.017       -1509.866
  22039418.556          17.203     -141211.071        2479.971
  24067773.255          26.818     -146856.664        2587.879
  23044722.202          33.341      -35621.344         609.002
  20970564.010          37.565       -4534.681          62.159
  24642341.092          17.475      193654.138       -3432.004
  20720863.574          36.002      -68215.966        1188.977
  22467550.666          31.050      152974.822       -2706.880
  22094661.613          36.159      156579.698       -2777.832
 17 07 17 11 47 18.000335   0  9G05G16G18G20G21G25G26G29G31
  24912249.935          24.627       85932.328       -1511.356
  22038928.995          20.357     -143686.302        2482.097
  24067294.788          27.795     -149444.444        2587.841
  23044605.878          34.635      -36230.373         608.765
  20970558.613          38.092       -4596.448          61.441
  24642998.834          14.441      197092.114       -3432.872
  20720639.627          37.523      -69404.923        1188.582
  22468076.502          33.076      155681.716       -2706.418
  22095192.244          35.345      159358.286       -2778.900
 17 07 17 11 47 19.000335   0  9G05G16G18G20G21G25G26G29G31
  24912477.355          23.334       87442.764       -1507.218
  22038399.437          21.921     -146169.912        2483.152
  24066734.649          26.731     -152032.451        2588.177
  23044415.086          35.472      -36838.841         608.180
  20970469.451          37.718       -4657.835          61.160
  24643580.607          19.532      200526.779       -3430.693
  20720340.312          38.677      -70593.507        1188.331
  22468516.173          34.237      158388.679       -2706.957
  22095649.902          34.458      162137.046       -2778.925
 17 07 17 11 47 20.000335   0  9G05G16G18G20G21G25G26G29G31
  24912810.423          22.174       88954.012       -1504.405
  22037944.353          20.128     -148655.901        2488.467
  24066227.702          25.686     -154620.998        2589.703
  23044296.067          33.882      -37446.716         607.568
  20970454.160          35.882       -4718.540          59.976
  24644229.358          20.777      203957.705       -3425.792
  20720113.367          38.214      -71781.606        1188.252
  22469036.613          34.189      161095.623       -2707.750
  22096181.135          35.222      164916.401       -2779.467
 17 07 17 11 47 21.000335   0  9G05G16G18G20G21G25G26G29G31
  24913052.057          21.607       90456.417       -1506.514
  22037464.084          21.795     -151149.921        2486.544
  24065732.444          23.612     -157208.877        2588.517
  23044189.045          36.538      -38054.132         606.998
  20970452.363          35.580       -4778.992          60.020
  24644869.114          17.383      207384.845       -3422.167
  20719887.321          37.901      -72969.295        1187.051
  22469558.850          33.762      163802.676       -2707.629
  22096705.173          37.379      167695.816       -2780.060
 17 07 17 11 47 22.000335   0  9G05G16G18G20G21G25G26G29G31
  24913335.832          21.777       91962.867       -1512.690
  22036912.639          25.339     -153635.102        2479.325
  24065164.810          24.165     -159796.456        2587.739
  23044000.046          34.418      -38660.749         606.216
  20970370.993          36.337       -4838.664          59.370
  24645485.665          21.476      210812.256       -3424.452
  20719579.613          35.520      -74156.466        1186.710
  22469985.329          33.936      166509.930       -2707.664
  22097165.829          37.182      170475.958       -2780.744
 17 07 17 11 47 23.000335   0  9G05G16G18G20G21G25G26G29G31
  24913559.478          21.803       93476.067       -1515.545
  22036450.060          26.286     -156117.317        2482.146
  24064688.742          25.988     -162383.832        2587.556
  23043881.031          33.834      -39266.591         605.655
  20970352.705          36.444       -4897.710          58.994
  24646134.412          18.201      214238.573       -3429.898
  20719364.059          34.510      -75343.166        1186.460
  22470513.865          33.025      169217.521       -2706.839
  22097697.061          36.523      173256.626       -2780.889
 17 07 17 11 47 24.000335   0  9G05G16G18G20G21G25G26G29G31
  24913868.565          23.153       94990.417       -1511.601
  22035970.092          26.016     -158599.297        2481.465
  24064186.289          27.296     -164971.101        2587.276
  23043773.704          35.254      -39871.756         604.999
  20970349.407          36.097       -4956.009          58.047
  24646765.176          19.842      217659.686       -3427.824
  20719132.922          33.352      -76529.177        1185.809
  22471025.912          33.394      171925.438       -2707.923
  22098218.701          35.581      176037.831       -2781.388
 17 07 17 11 47 25.000334   0  9G05G16G18G20G21G25G26G29G31
  24914084.289          24.224       96505.049       -1515.236
  22035422.548          27.603     -161080.828        2481.053
  24063627.350          27.608     -167558.098        2586.694
  23043585.608          34.633      -40476.172         603.679
  20970266.540          36.599       -5013.733          57.316
  24647364.037          14.511      221080.005       -3426.143
  20718837.198          33.314      -77714.720        1185.159
  22471485.965          31.559      174633.526       -2708.071
  22098680.556          35.777      178819.512       -2782.035
 17 07 17 11 47 26.000334   0  9G05G16G18G20G21G25G26G29G31
  24914318.428          23.379       98020.276       -1515.548
  22034965.361          25.710     -163562.040        2484.096
  24063134.490          24.482     -170145.105        2588.298
  23043467.793          36.078      -41079.946         603.540
  20970254.547          34.806       -5070.572          56.619
  24647992.999          14.369      224506.292       -3426.121
  20718613.255          34.261      -78899.668        1185.164
  22471980.325          31.194      177341.780       -2707.996
  22099205.790          33.954      181601.787       -2782.301
 17 07 17 11 47 27.000334   0  8G05G16G18G20G21G26G29G31
  24914647.901          22.079       99536.318       -1518.586
  22034487.495          23.634     -166043.291        2477.536
  24062626.043          22.638     -172731.143        2589.480
  23043346.976          37.459      -41682.975         602.755
  20970237.158          32.155       -5127.049          56.303
  20718387.811          33.154      -80083.608        1184.593
  22472480.679          32.251      180050.345       -2709.120
  22099748.413          31.966      184384.346       -2783.238
 17 07 17 11 47 28.000334   0  8G05G16G18G20G21G26G29G31
  24914804.442          21.832      101052.807       -1518.364
  22033864.575          23.376     -168523.887        2477.419
  24062042.996          26.159     -175317.595        2586.334
  23043093.699          37.043      -42285.246         601.767
  20970091.807          35.524       -5182.811          55.185
  20718021.213          38.120      -81267.392        1183.212
  22472870.456          34.263      182759.284       -2709.448
  22100122.602          34.810      187167.734       -2783.686
 17 07 17 11 47 29.000334   0  8G05G16G18G20G21G26G29G31
  24915103.033          19.959      102570.644       -1515.639
  22033395.696          23.776     -170996.717        2477.194
  24061542.040          24.892     -177903.747        2586.210
  23042979.780          37.586      -42886.684         600.846
  20970075.622          37.265       -5237.762          54.662
  20717792.772          39.316      -82450.492        1182.553
  22473377.106          36.403      185468.486       -2709.561
  22100655.933          35.219      189951.813       -2784.672
 17 07 17 11 47 30.000334   0  8G05G16G18G20G21G26G29G31
  24915392.336          19.145      104088.133       -1516.706
  22032925.622          25.383     -173476.522        2479.321
  24061086.057          23.096     -180489.804        2586.101
  23042866.755          36.502      -43487.474         600.438
  20970065.125          37.576       -5292.071          53.859
  20717570.626          37.756      -83633.091        1182.378
  22473891.250          36.898      188177.865       -2709.690
  22101181.769          31.545      192736.207       -2784.571
 17 07 17 11 47 31.000334   0  8G05G16G18G20G21G26G29G31
  24915561.293          21.047      105607.012       -1518.371
  22032383.174          27.121     -175955.868        2479.243
  24060493.543          23.006     -183075.714        2586.121
  23042675.064          35.687      -44087.566         599.823
  20969980.758          37.279       -5345.663          53.287
  20717271.608          39.256      -84815.152        1181.712
  22474337.217          37.731      190887.494       -2709.868
  22101641.526          33.105      195521.196       -2785.289
 17 07 17 11 47 32.000334   0  8G05G16G18G20G21G26G29G31
  24915838.599          22.483      107126.485       -1520.943
  22031908.004          27.622     -178435.028        2479.150
  24059986.894          24.722     -185661.399        2584.905
  23042565.939          37.102      -44687.041         599.131
  20969975.361          37.041       -5398.780          52.919
  20717051.857          38.185      -85996.788        1181.255
  22474853.460          38.252      193597.278       -2710.083
  22102175.459          33.245      198306.440       -2785.544
 17 07 17 11 47 33.000334   0  8G05G16G18G20G21G26G29G31
  24916178.263          24.672      108646.695       -1520.254
  22031446.921          24.321     -180913.728        2475.970
  24059489.235          26.073     -188247.084        2585.722
  23042447.221          37.543      -45285.770         598.261
  20969963.670          37.514       -5451.265          52.303
  20716825.214          38.278      -87177.939        1181.033
  22475361.008          36.159      196307.326       -2709.852
  22102707.887          33.391      201092.409       -2785.893
 17 07 17 11 47 34.000333   0  8G05G16G18G20G21G26G29G31
  24916427.566          24.086      110167.401       -1520.192
  22030912.269          24.135     -183392.168        2478.009
  24058933.298          26.286     -190832.701        2585.666
  23042261.525          36.129      -45883.924         597.439
  20969888.896          38.037       -5503.181          51.759
  20716529.795          38.529      -88358.531        1180.151
  22475816.864          35.381      199017.519       -2710.525
  22103163.150          34.089      203878.631       -2786.569
 17 07 17 11 47 35.000333   0  8G05G16G18G20G21G26G29G31
  24916700.077          24.417      111688.908       -1521.777
  22030452.983          22.112     -185870.253        2477.185
  24058437.738          24.436     -193418.022        2585.421
  23042139.508          34.476      -46481.435         596.962
  20969876.305          36.733       -5554.443          50.969
  20716308.548          38.351      -89538.614        1179.866
  22476333.107          35.523      201727.795       -2710.618
  22103693.480          33.940      206665.431       -2787.279
 17 07 17 11 47 36.000333   0  8G05G16G18G20G21G26G29G31
  24916976.484          24.256      113210.936       -1522.404
  22029962.523          24.501     -188348.232        2478.105
  24057958.371          24.509     -196003.305        2585.062
  23042026.789          33.707      -47078.271         596.110
  20969867.912          37.411       -5605.146          50.355
  20716080.107          38.627      -90718.251        1179.323
  22476846.951          35.585      204438.379       -2710.885
  22104221.118          34.000      209452.625       -2787.252
 17 07 17 11 47 37.000333   0  8G05G16G18G20G21G26G29G31
  24917176.621          23.503      114733.750       -1522.940
  22029417.077          26.237     -190825.496        2477.288
  24057402.429          24.303     -198588.249        2584.884
  23041845.887          34.306      -47674.268         595.913
  20969783.544          36.341       -5655.019          49.680
  20715784.985          38.059      -91897.203        1178.598
  22477295.317          36.149      207149.226       -2710.886
  22104681.773          34.335      212240.515       -2787.874
 17 07 17 11 47 38.000333   0  8G05G16G18G20G21G26G29G31
  24917474.614          23.691      116257.392       -1523.982
  22028944.303          27.167     -193302.521        2476.756
  24056893.385          25.204     -201173.055        2584.405
  23041734.964          34.280      -48269.576         594.756
  20969776.049          37.182       -5704.296          49.021
  20715563.437          37.461      -93075.581        1178.111
  22477805.264          38.890      209860.340       -2711.456
  22105214.201          35.607      215028.836       -2788.786
 17 07 17 11 47 39.000333   0  8G05G16G18G20G21G26G29G31
  24917787.601          24.406      117781.486       -1524.033
  22028462.838          26.070     -195779.271        2477.224
  24056424.807          24.477     -203757.669        2584.275
  23041622.240          33.855      -48864.199         594.182
  20969763.158          37.169       -5752.909          48.206
  20715335.594          37.892      -94253.418        1177.550
  22478326.302          35.529      212571.752       -2711.869
  22105751.432          34.289      217817.731       -2789.097
 17 07 17 11 47 40.000333   0  8G05G16G18G20G21G26G29G31
  24918093.089          23.547      119306.484       -1525.241
  22027978.372          24.855     -198255.565        2475.527
  24055908.263          25.482     -206342.006        2584.035
  23041508.617          33.157      -49458.006         593.861
  20969760.161          37.191       -5800.891          47.384
  20715112.248          39.546      -95430.717        1176.878
  22478843.744          35.149      215283.329       -2711.687
  22106278.764          36.316      220607.217       -2789.807
 17 07 17 11 47 41.000333   0  8G05G16G18G20G21G26G29G31
  24918310.313          23.344      120831.821       -1525.990
  22027445.216          25.367     -200731.778        2475.701
  24055326.242          25.776     -208926.400        2584.298
  23041315.129          31.800      -50051.315         592.716
  20969671.296          37.242       -5848.419          47.274
  20714811.433          39.361      -96607.698        1176.736
  22479282.517          34.850      217995.055       -2711.905
  22106733.726          34.870      223397.030       -2790.462
 17 07 17 11 47 42.000333   0  8G05G16G18G20G21G26G29G31
  24918575.927          22.270      122358.089       -1526.121
  22026975.142          26.745     -203207.566        2475.733
  24054816.896          24.059     -211510.490        2584.552
  23041206.602          34.215      -50643.915         591.772
  20969671.597          36.516       -5895.181          46.502
  20714594.985          39.248      -97783.941        1175.883
  22479800.557          35.093      220707.043       -2712.620
  22107263.759          33.625      226187.317       -2790.946
 17 07 17 11 47 43.000333   0  8G05G16G18G20G21G26G29G31
  24918851.737          19.585      123887.933       -1526.420
  22026500.871          25.247     -205682.853        2475.189
  24054365.407          23.816     -214096.083        2586.554
  23041109.169          33.965      -51235.691         591.190
  20969659.006          34.149       -5941.021          45.812
  20714374.636          36.092      -98959.574        1175.703
  22480317.097          34.477      223419.420       -2712.513
  22107794.992          34.952      228978.216       -2791.245
 17 07 17 11 47 44.000333   0  8G05G16G18G20G21G26G29G31
  24919101.039          19.349      125417.894       -1527.393
  22025953.322          28.034     -208157.648        2474.260
  24053827.456          24.271     -216679.652        2583.392
  23040924.672          33.821      -51826.646         590.713
  20969570.743          33.327       -5986.389          45.269
  20714068.123          38.051     -100134.545        1174.528
  22480757.667          33.198      226132.146       -2712.571
  22108259.543          36.367      231769.844       -2791.573
 17 07 17 11 47 45.000333   0  8G05G16G18G20G21G26G29G31
  24919342.070          17.612      126941.737       -1527.694
  22025485.046          25.919     -210632.146        2474.244
  24053282.132          24.478     -219262.984        2583.510
  23040802.957          33.760      -52416.850         589.590
  20969570.141          36.575       -6031.040          44.003
  20713849.572          37.061     -101309.072        1174.064
  22481273.011          36.144      228845.022       -2713.584
  22108782.980          36.808      234562.044       -2792.883
 17 07 17 11 47 46.000333   0  8G05G16G18G20G21G26G29G31
  24919588.502          17.022      128468.683       -1528.100
  22025025.765          25.511     -213106.116        2473.929
  24052808.459          26.428     -221846.131        2583.677
  23040695.930          33.763      -53006.357         588.640
  20969558.449          36.928       -6074.954          43.405
  20713627.427          38.498     -102482.923        1173.489
  22481793.451          33.157      231558.189       -2713.737
  22109322.606          37.527      237354.702       -2793.046
 17 07 17 11 47 47.000332   0  8G05G16G18G20G21G26G29G31
  24919913.351          20.346      129998.644       -1528.782
  22024481.218          22.677     -215579.467        2474.016
  24052240.528          25.631     -224429.002        2582.784
  23040509.034          35.754      -53595.109         588.408
  20969476.782          36.962       -6118.215          42.977
  20713331.406          37.091     -103656.184        1172.910
  22482224.126          32.694      234271.718       -2713.297
  22109778.467          36.285      240148.037       -2793.701
 17 07 17 11 47 48.000332   0  8G05G16G18G20G21G26G29G31
  24920156.481          20.312      131529.169       -1529.156
  22023986.561          23.095     -218058.074        2474.246
  24051723.684          23.892     -227011.786        2583.173
  23040395.115          35.749      -54183.054         587.862
  20969471.683          36.595       -6160.740          42.201
  20713105.962          36.442     -104828.893        1172.466
  22482753.562          31.730      236985.533       -2714.059
  22110304.002          36.354      242941.849       -2794.272
 17 07 17 11 47 49.000332   0  8G05G16G18G20G21G26G29G31
  24920443.083          19.268      133060.762       -1529.292
  22023520.980          23.973     -220531.493        2472.484
  24051259.307          24.772     -229594.301        2582.631
  23040284.192          34.467      -54770.314         586.567
  20969458.791          35.329       -6202.595          41.238
  20712878.119          35.902     -106000.882        1171.559
  22483268.003          33.457      239699.470       -2714.522
  22110841.830          36.545      245736.159       -2794.771
 17 07 17 11 47 50.000332   0  8G05G16G18G20G21G26G29G31
  24920718.168          20.124      134593.072       -1528.847
  22022997.120          23.011     -223003.889        2472.256
  24050680.584          21.658     -232176.491        2583.483
  23040106.889          35.440      -55356.723         586.006
  20969383.720          34.656       -6243.694          40.772
  20712593.192          36.050     -107172.374        1171.401
  22483718.768          34.099      242413.901       -2714.808
  22111307.581          34.522      248531.087       -2795.421
 17 07 17 11 47 51.000332   0  8G05G16G18G20G21G26G29G31
  24921029.951          18.839      136125.733       -1531.693
  22022512.353          25.482     -225476.092        2472.080
  24050175.134          21.546     -234758.637        2585.478
  23039990.566          34.953      -55942.525         585.546
  20969379.524          36.254       -6284.251          40.416
  20712363.250          36.943     -108343.254        1170.814
  22484226.617          35.307      245128.264       -2714.408
  22111839.712          33.443      251326.483       -2795.406
 17 07 17 11 47 52.000332   0  8G05G16G18G20G21G26G29G31
  24921320.450          19.819      137659.534       -1532.290
  22022027.290          22.796     -227947.427        2474.647
  24049711.054          23.952     -237340.610        2581.401
  23039871.853          34.121      -56527.752         584.755
  20969376.226          36.907       -6324.275          39.447
  20712149.498          37.046     -109513.815        1169.964
  22484748.553          33.408      247842.870       -2714.152
  22112373.942          33.656      254122.282       -2796.198
 17 07 17 11 47 53.000332   0  8G05G16G18G20G21G26G29G31
  24921525.682          19.301      139196.969       -1531.964
  22021508.224          26.870     -230418.736        2471.294
  24049158.410          24.897     -239922.201        2581.230
  23039688.852          34.612      -57111.955         583.617
  20969290.959          36.470       -6363.270          38.207
  20711851.378          38.159     -110683.515        1169.171
  22485192.120          34.703      250558.120       -2715.213
  22112832.202          35.695      256918.945       -2797.437
 17 07 17 11 47 54.000332   0  8G05G16G18G20G21G26G29G31
  24921832.670          19.217      140733.328       -1532.485
  22021038.150          26.376     -232889.569        2470.131
  24048653.261          25.363     -242503.619        2581.461
  23039578.226          34.169      -57695.406         583.022
  20969286.161          35.652       -6401.652          37.636
  20711629.233          37.584     -111852.558        1168.602
  22485704.167          35.054      253273.557       -2715.724
  22113362.833          38.653      259716.106       -2797.478
 17 07 17 11 47 55.000332   0  8G05G16G18G20G21G26G29G31
  24922149.252          19.262      142271.500       -1533.363
  22020561.179          24.225     -235359.774        2468.306
  24048164.899          25.377     -245084.749        2581.140
  23039479.598          33.137      -58277.964         582.243
  20969275.669          35.025       -6439.238          37.246
  20711408.885          36.476     -113020.993        1167.711
  22486223.110          33.046      255989.419       -2716.338
  22113893.764          38.743      262513.939       -2798.173
 17 07 17 11 47 56.000332   0  8G05G16G18G20G21G26G29G31
  24922378.766          18.307      143805.204       -1534.429
  22020013.630          21.151     -237833.002        2470.105
  24047598.465          25.153     -247665.490        2580.295
  23039287.305          33.362      -58859.912         581.806
  20969204.193          35.484       -6476.138          36.536
  20711111.668          36.745     -114188.850        1167.666
  22486669.975          33.346      258705.467       -2716.895
  22114359.816          37.796      265312.294       -2798.522
 17 07 17 11 47 57.000332   0  8G05G16G18G20G21G26G29G31
  24922655.177          19.403      145335.762       -1535.627
  22019538.461          23.691     -240302.825        2469.448
  24047113.698          25.878     -250246.272        2580.531
  23039174.882          34.077      -59441.098         580.671
  20969197.596          35.329       -6512.439          35.801
  20710893.418          35.833     -115356.207        1167.139
  22487195.807          34.756      261421.682       -2716.572
  22114889.251          37.135      268111.148       -2799.116
 17 07 17 11 47 58.000332   0  8G05G16G18G20G21G26G29G31
  24922935.184          19.503      146874.776       -1536.191
  22019087.573          22.412     -242770.411        2471.983
  24046614.844          28.467     -252826.328        2579.711
  23039073.850          34.349      -60021.088         579.303
  20969189.801          34.439       -6547.609          34.445
  20710668.873          34.330     -116522.391        1165.688
  22487710.854          32.980      264138.778       -2716.845
  22115421.082          38.208      270910.985       -2800.324
 17 07 17 11 47 59.000331   0  8G05G16G18G20G21G26G29G31
  24923157.203          16.989      148413.967       -1537.117
  22018552.916          18.928     -245237.797        2470.841
  24046073.294          28.672     -255405.965        2579.714
  23038892.350          33.147      -60600.164         578.636
  20969102.139          32.809       -6581.938          33.833
  20710381.246          34.012     -117687.964        1165.430
  22488159.216          31.079      266856.149       -2717.497
  22115882.640          36.606      273711.643       -2801.035
 17 07 17 11 48 00.000331   0  8G05G16G18G20G21G26G29G31
  24923448.002          19.504      149953.527       -1538.778
  22018130.809          19.483     -247706.046        2470.768
  24045580.736          30.529     -257985.680        2579.560
  23038786.226          35.079      -61178.849         578.380
  20969099.740          35.526       -6615.859          33.519
  20710156.701          38.549     -118853.212        1165.035
  22488667.065          35.355      269573.532       -2717.427
  22116408.773          38.346      276512.422       -2801.091
 17 07 17 11 48 01.000331   0  8G05G16G18G20G21G26G29G31
  24923728.008          22.015      151494.377       -1541.029
  22017646.644          19.144     -250174.550        2470.416
  24045086.676          33.110     -260564.910        2579.090
  23038680.099          36.025      -61756.422         577.060
  20969086.548          35.979       -6648.903          32.394
  20709936.954          39.220     -120017.655        1163.926
  22489185.708          35.097      272291.561       -2718.080
  22116950.201          38.909      279314.044       -2802.036
 17 07 17 11 48 02.000331   0  8G05G16G18G20G21G26G29G31
  24923917.648          22.597      153036.400       -1543.410
  22017097.900          25.064     -252641.152        2466.466
  24044526.839          33.767     -263143.492        2578.427
  23038496.802          34.839      -62332.888         576.071
  20969016.271          36.738       -6680.670          31.367
  20709640.034          40.407     -121180.933        1162.989
  22489637.066          33.511      275010.244       -2718.878
  22117412.653          39.177      282116.625       -2802.972
 17 07 17 11 48 03.000331   0  8G05G16G18G20G21G26G29G31
  24924242.925          23.048      154579.558       -1544.158
  22016623.328          28.666     -255106.923        2465.449
  24044023.788          32.080     -265721.332        2577.560
  23038393.370          36.055      -62908.016         574.360
  20969009.077          37.503       -6711.265          30.176
  20709421.484          40.510     -122343.164        1161.773
  22490157.807          34.076      277729.766       -2720.013
  22117947.184          40.653      284920.371       -2804.229
 17 07 17 11 48 04.000331   0  8G05G16G18G20G21G26G29G31
  24924521.731          23.723      156123.933       -1547.782
  22016154.755          27.230     -257571.952        2464.871
  24043532.429          31.035     -268298.564        2577.324
  23038270.756          35.234      -63482.008         573.717
  20969004.580          37.030       -6740.779          29.125
  20709199.940          39.969     -123504.379        1160.796
  22490664.456          32.945      280450.005       -2720.756
  22118478.116          40.522      287725.049       -2805.011
 17 07 17 11 48 05.000331   0  8G05G16G18G20G21G26G29G31
  24924742.555          21.588      157669.218       -1542.244
  22015614.400          26.869     -260036.317        2463.580
  24042976.788          31.193     -270875.295        2577.055
  23038099.150          37.086      -64055.047         572.900
  20968929.208          36.982       -6769.365          28.063
  20708909.612          40.153     -124664.772        1159.932
  22491110.122          33.397      283170.736       -2720.830
  22118941.768          40.210      290530.520       -2805.795
 17 07 17 11 48 06.000331   0  8G05G16G18G20G21G26G29G31
  24925094.810          22.335      159215.185       -1538.433
  22015152.720          26.081     -262500.419        2464.025
  24042498.918          30.959     -273451.781        2576.569
  23037982.230          37.663      -64627.270         571.797
  20968923.811          37.796       -6797.243          27.394
  20708687.767          40.628     -125824.558        1159.688
  22491623.067          33.527      285891.679       -2720.852
  22119474.200          41.070      293336.573       -2806.401
 17 07 17 11 48 07.000331   0  8G05G16G18G20G21G26G29G31
  24925399.996          21.333      160762.263       -1544.750
  22014655.663          24.107     -264964.041        2465.827
  24042003.363          31.099     -276027.994        2576.497
  23037869.209          37.392      -65198.705         571.061
  20968916.914          38.061       -6824.395          26.842
  20708467.122          40.474     -126983.684        1158.767
  22492146.207          34.244      288612.949       -2720.738
  22120013.826          39.671      296143.285       -2806.790
 17 07 17 11 48 08.000331   0  8G05G16G18G20G21G26G29G31
  24925613.923          20.281      162309.031       -1546.757
  22014088.932          20.752     -267423.451        2461.086
  24041433.329          31.820     -278604.158        2575.966
  23037690.108          36.943      -65769.673         570.455
  20968840.940          38.041       -6851.112          26.459
  20708174.399          41.460     -128142.524        1158.575
  22492594.267          36.319      291334.334       -2721.550
  22120469.984          39.456      298950.249       -2807.084
 17 07 17 11 48 09.000331   0  8G05G16G18G20G21G26G29G31
  24925887.935          19.887      163857.606       -1548.702
  22013615.259          17.612     -269886.931        2456.828
  24040932.076          31.452     -281180.488        2576.648
  23037581.581          37.094      -66340.129         570.308
  20968836.743          38.627       -6877.407          26.298
  20707950.753          40.308     -129300.997        1158.458
  22493103.918          35.255      294055.717       -2721.204
  22121004.514          39.266      301757.462       -2807.206
 17 07 17 11 48 10.000331   0  8G05G16G18G20G21G26G29G31
  24926158.649          18.763      165405.886       -1546.046
  22013251.911          18.746     -272349.389        2457.053
  24040441.315          30.953     -283756.761        2576.167
  23037474.856          36.431      -66910.079         569.266
  20968833.445          38.935       -6903.263          25.463
  20707729.807          40.077     -130459.165        1157.766
  22493629.754          33.623      296777.073       -2721.659
  22121542.343          39.567      304564.990       -2807.738
 17 07 17 11 48 11.000330   0  8G05G16G18G20G21G26G29G31
  24926322.083          19.311      166954.531       -1547.077
  22012604.709          20.253     -274811.255        2459.613
  24039807.606          30.534     -286333.190        2576.149
  23037221.880          36.863      -67479.643         569.120
  20968689.594          38.954       -6928.735          25.207
  20707364.107          39.341     -131617.050        1157.957
  22494000.345          34.724      299498.396       -2721.255
  22121931.522          40.394      307372.744       -2807.814
 17 07 17 11 48 12.000330   0  8G05G16G18G20G21G26G29G31
  24926606.587          19.499      168503.564       -1547.956
  22012130.438          18.323     -277274.757        2461.077
  24039328.536          32.261     -288909.868        2577.141
  23037109.457          37.011      -68048.914         569.152
  20968682.702          38.834       -6954.013          25.285
  20707141.063          39.002     -132774.812        1157.855
  22494518.385          34.295      302219.488       -2720.916
  22122470.250          41.153      310180.643       -2807.720
 17 07 17 11 48 13.000330   0  8G05G16G18G20G21G26G29G31
  24926924.666          20.291      170052.982       -1548.851
  22011624.386          22.182     -279737.874        2460.758
  24038826.084          32.059     -291486.494        2576.446
  23036995.838          36.473      -68617.761         568.602
  20968678.801          37.882       -6978.827          24.625
  20706926.412          39.871     -133932.230        1157.376
  22495034.327          35.516      304940.610       -2721.007
  22123000.584          41.100      312988.796       -2808.253
 17 07 17 11 48 14.000330   0  8G05G16G18G20G21G26G29G31
  24927147.287          20.970      171602.726       -1550.024
  22011078.639          19.947     -282201.057        2460.944
  24038259.052          30.699     -294063.444        2577.003
  23036823.631          37.690      -69186.203         568.042
  20968599.233          37.096       -7003.443          24.388
  20706631.887          39.068     -135089.584        1157.482
  22495490.489          35.098      307661.515       -2720.623
  22123466.635          41.830      315797.021       -2808.466
 17 07 17 11 48 15.000330   0  8G05G16G18G20G21G26G29G31
  24927400.014          21.323      173152.881       -1549.511
  22010598.671          20.948     -284665.457        2454.877
  24037768.291          30.114     -296640.443        2577.312
  23036716.007          37.977      -69754.262         567.934
  20968593.836          36.822       -7027.692          24.418
  20706411.840          39.869     -136246.558        1156.938
  22496002.535          36.172      310382.510       -2720.843
  22124003.862          42.158      318605.520       -2808.615
 17 07 17 11 48 16.000330   0  8G05G16G18G20G21G26G29G31
  24927634.026          19.625      174702.552       -1553.296
  22010067.613          26.711     -287128.357        2462.701
  24037192.865          28.895     -299217.519        2576.994
  23036536.304          38.892      -70321.893         567.482
  20968519.660          37.071       -7051.565          23.703
  20706120.919          40.343     -137403.301        1156.635
  22496449.400          37.801      313103.316       -2720.647
  22124463.021          42.246      321414.210       -2808.726
 17 07 17 11 48 17.000330   0  8G05G16G18G20G21G26G29G31
  24927926.923          16.136      176258.495       -1553.325
  22009600.536          29.021     -289591.278        2462.709
  24036700.905          27.180     -301794.955        2577.589
  23036431.376          38.366      -70889.252         567.201
  20968510.970          37.099       -7075.220          23.562
  20705902.669          39.901     -138559.960        1156.519
  22496962.345          35.063      315824.045       -2720.634
  22124999.646          42.325      324223.039       -2808.973
 17 07 17 11 48 18.000330   0  8G05G16G18G20G21G26G29G31
  24928237.808          14.261      177813.347       -1552.134
  22009140.356          26.723     -292054.206        2463.478
  24036221.538          27.743     -304372.303        2577.351
  23036323.752          38.218      -71456.152         566.685
  20968509.469          37.461       -7098.433          23.178
  20705679.620          39.751     -139716.278        1156.056
  22497474.988          33.588      318544.740       -2720.763
  22125532.379          42.981      327032.121       -2809.265
 17 07 17 11 48 19.000329   0  8G05G16G18G20G21G26G29G31
  24928518.887          16.356      179362.239       -1550.016
  22008592.210          25.644     -294516.996        2462.291
  24035662.298          28.347     -306949.831        2577.207
  23036147.649          37.617      -72022.591         566.349
  20968429.900          37.121       -7121.263          22.464
  20705386.897          39.205     -140872.317        1155.765
  22497927.250          35.282      321265.392       -2720.694
  22125999.330          42.649      329841.400       -2809.428
 17 07 17 11 48 20.000329   0  8G05G16G18G20G21G26G29G31
  24928797.392          15.379      180906.605       -1551.900
  22008143.421          24.214     -296979.509        2462.810
  24035170.939          28.326     -309527.409        2577.322
  23036042.119          39.139      -72588.566         565.839
  20968426.301          37.297       -7143.744          22.426
  20705171.047          37.611     -142028.113        1155.905
  22498443.493          34.769      323985.996       -2720.547
  22126534.161          42.225      332650.986       -2809.669
 17 07 17 11 48 21.000329   0  8G05G16G18G20G21G26G29G31
  24929110.676          14.128      182461.247       -1553.098
  22007680.541          23.887     -299442.003        2462.374
  24034697.864          29.872     -312104.912        2577.334
  23035929.399          39.490      -73153.959         564.955
  20968423.003          37.434       -7165.709          21.911
  20704952.500          38.017     -143183.413        1155.217
  22498966.031          35.071      326706.699       -2720.834
  22127066.589          41.489      335460.925       -2810.148
 17 07 17 11 48 22.000329   0  8G05G16G18G20G21G26G29G31
  24929298.820          14.186      184016.916       -1553.819
  22007120.402          24.200     -301904.235        2462.084
  24034133.231          29.628     -314682.384        2577.209
  23035753.893          38.978      -73718.911         564.663
  20968344.032          37.353       -7187.167          21.279
  20704655.580          38.098     -144338.363        1154.748
  22499409.598          34.111      329427.473       -2720.554
  22127530.543          41.469      338271.225       -2810.601
 17 07 17 11 48 23.000329   0  8G05G16G18G20G21G26G29G31
  24929463.105          13.961      185600.521       -1552.907
  22006671.312          27.305     -304366.410        2462.079
  24033649.066          29.359     -317259.972        2577.449
  23035648.368          39.141      -74283.317         564.317
  20968342.235          37.924       -7208.241          20.822
  20704442.426          38.427     -145493.028        1154.517
  22499916.845          32.998      332148.251       -2720.696
  22128065.073          41.402      341081.773       -2810.630
 17 07 17 11 48 24.000329   0  8G05G16G18G20G21G26G29G31
  24929724.823          13.873      187155.716       -1552.946
  22006191.348          26.615     -306828.343        2461.590
  24033150.213          29.071     -319837.565        2577.206
  23035544.940          38.467      -74847.160         563.453
  20968336.537          37.640       -7228.832          20.161
  20704222.981          37.372     -146647.276        1154.144
  22500453.173          32.328      334869.244       -2720.871
  22128600.804          43.078      343892.691       -2811.156
 17 07 17 11 48 25.000329   0  7G16G18G20G21G26G29G31
  22005662.087          24.379     -309290.114        2461.442
  24032612.558          27.886     -322415.136        2577.791
  23035358.642          37.085      -75410.493         563.121
  20968264.463          36.867       -7248.903          19.841
  20703932.954          38.210     -147801.129        1153.820
  22500894.045          35.490      337590.230       -2720.935
  22129060.861          42.486      346704.006       -2811.568
 17 07 17 11 48 26.000329   0  7G16G18G20G21G26G29G31
  22005162.932          25.588     -311751.719        2461.278
  24032106.506          26.374     -324992.545        2577.090
  23035258.211          37.536      -75973.230         562.208
  20968259.067          36.875       -7268.486          19.151
  20703712.309          38.275     -148954.609        1153.275
  22501412.983          36.461      340311.233       -2720.921
  22129601.984          42.489      349515.614       -2812.044
 17 07 17 11 48 27.000329   0  7G16G18G20G21G26G29G31
  22004724.038          26.374     -314212.750        2459.787
  24031634.936          24.501     -327570.112        2577.879
  23035143.092          37.428      -76535.421         561.862
  20968256.070          37.392       -7287.586          18.772
  20703494.958          37.259     -150107.613        1152.885
  22501915.140          34.906      343032.320       -2721.221
  22130135.917          42.376      352327.590       -2812.219
 17 07 17 11 48 28.000329   0  7G16G18G20G21G26G29G31
  22004200.173          25.602     -316673.923        2460.435
  24031078.693          23.491     -330146.814        2576.859
  23034968.485          37.096      -77096.980         561.215
  20968182.792          37.484       -7306.120          18.125
  20703198.636          36.884     -151260.169        1152.128
  22502364.400          35.027      345753.599       -2721.405
  22130596.869          42.439      355140.033       -2812.557
 17 07 17 11 48 29.000329   0  7G16G18G20G21G26G29G31
  22003736.093          24.030     -319135.246        2460.168
  24030587.334          24.597     -332724.602        2576.755
  23034850.670          37.434      -77657.881         560.687
  20968177.998          37.997       -7324.065          17.857
  20702979.491          36.963     -152412.216        1151.591
  22502886.039          36.903      348475.098       -2721.625
  22131131.700          42.418      357952.933       -2812.952
 17 07 17 11 48 30.000329   0  7G16G18G20G21G26G29G31
  22003264.820          25.511     -321598.221        2461.006
  24030077.085          26.445     -335301.756        2577.204
  23034752.037          37.594      -78218.284         559.998
  20968177.998          38.264       -7341.465          17.127
  20702758.842          32.326     -153563.879        1151.211
  22503403.181          36.840      351196.576       -2721.357
  22131665.031          41.893      360766.135       -2813.422
 17 07 17 11 48 31.000329   0  7G16G18G20G21G26G29G31
  22002706.483          26.750     -324058.663        2460.537
  24029506.756          27.342     -337878.903        2576.850
  23034568.740          36.121      -78778.181         559.451
  20968099.027          38.186       -7358.563          16.981
  20702450.532          31.349     -154715.150        1150.574
  22503847.948          38.093      353918.048       -2721.309
  22132129.883          41.864      363579.623       -2813.669
 17 07 17 11 48 32.000329   0  7G16G18G20G21G26G29G31
  22002234.310          22.803     -326519.207        2459.060
  24029028.288          26.996     -340456.275        2577.182
  23034465.308          37.032      -79337.558         559.081
  20968099.624          38.156       -7375.160          16.182
  20702234.380          31.571     -155866.400        1151.007
  22504369.587          38.753      356639.610       -2721.591
  22132665.614          42.180      366393.417       -2814.203
 17 07 17 11 48 33.000329   0  7G16G18G20G21G26G29G31
  22001783.719          20.774     -328977.164        2461.066
  24028527.336          26.271     -343033.553        2577.441
  23034359.481          38.275      -79896.473         558.761
  20968094.830          39.525       -7391.297          15.917
  20702019.729          28.390     -157016.964        1149.395
  22504886.131          39.683      359361.217       -2721.275
  22133197.143          43.005      369207.587       -2814.463
 17 07 17 11 48 34.000328   0  7G16G18G20G21G26G29G31
  22001243.670          22.860     -331435.768        2461.366
  24027960.902          25.454     -345610.616        2576.514
  23034177.685          36.687      -80454.680         557.992
  20968020.056          38.209       -7406.821          15.174
  20701734.200          29.364     -158167.204        1149.852
  22505331.796          38.302      362083.060       -2722.448
  22133664.996          43.612      372022.153       -2814.848
 17 07 17 11 48 35.000328   0  7G16G18G20G21G26G29G31
  22000789.781          19.764     -333896.241        2463.411
  24027508.213          22.249     -348187.620        2575.166
  23034077.852          36.330      -81012.407         557.218
  20968013.460          38.208       -7421.897          14.843
  20701532.140          28.385     -159317.033        1149.918
  22505847.738          34.812      364804.826       -2721.986
  22134202.524          43.069      374837.054       -2815.114
 17 07 17 11 48 36.000328   0  7G16G18G20G21G26G29G31
  22000331.399          15.979     -336365.102        2463.507
  24026980.579          24.191     -350764.678        2577.501
  23033972.924          37.137      -81569.407         556.603
  20968017.957          37.885       -7436.382          14.422
  20701304.297          30.410     -160466.318        1149.318
  22506372.977          36.261      367526.844       -2721.916
  22134737.352          42.811      377652.456       -2815.541
 17 07 17 11 48 37.000328   0  7G16G18G20G21G26G29G31
  21999761.671          17.757     -338830.334        2462.274
  24026433.934          25.315     -353341.336        2577.107
  23033790.225          36.223      -82125.859         556.132
  20967937.486          37.041       -7450.284          13.626
  20701007.678          31.614     -161615.245        1148.689
  22506822.237          37.072      370248.962       -2722.141
  22135204.302          42.975      380468.221       -2816.061
 17 07 17 11 48 38.000328   0  7G16G18G20G21G26G29G31
  21999282.000          18.301     -341290.635        2462.017
  24025950.070          26.823     -355918.017        2577.015
  23033688.298          37.251      -82681.500         555.102
  20967934.790          37.279       -7463.531          12.928
  20700801.722          30.457     -162763.395        1147.232
  22507341.477          35.889      372971.432       -2722.610
  22135733.140          42.346      383284.550       -2816.504
 17 07 17 11 48 39.000328   0  7G16G18G20G21G26G29G31
  21998792.438          21.240     -343749.716        2461.100
  24025439.520          27.479     -358494.478        2576.271
  23033583.069          37.618      -83236.500         554.921
  20967939.885          38.824       -7476.176          12.724
  20700576.278          33.573     -163911.197        1147.471
  22507851.128          36.012      375693.980       -2722.245
  22136272.766          41.097      386101.362       -2816.828
 17 07 17 11 48 40.000328   0  7G16G18G20G21G26G29G31
  21998264.381          24.836     -346207.689        2457.801
  24024898.572          26.491     -361070.993        2576.670
  23033403.668          36.790      -83790.823         553.850
  20967863.012          38.219       -7488.178          11.511
  20700282.953          34.031     -165058.380        1147.220
  22508306.387          37.092      378416.813       -2722.908
  22136739.415          42.258      388918.611       -2817.553
 17 07 17 11 48 41.000328   0  7G16G18G20G21G26G29G31
  21997797.003          25.207     -348665.274        2457.138
  24024385.326          26.754     -363647.069        2576.148
  23033312.529          35.747      -84344.446         553.197
  20967858.214          37.749       -7499.574          11.114
  20700063.804          33.811     -166205.033        1146.384
  22508808.237          34.316      381139.844       -2722.979
  22137271.546          41.870      391736.429       -2818.090
 17 07 17 11 48 42.000328   0  7G16G18G20G21G26G29G31
  21997328.426          22.199     -351121.738        2457.508
  24023890.368          27.213     -366223.063        2575.521
  23033205.507          36.311      -84897.331         552.321
  20967860.312          38.833       -7510.317          10.401
  20699860.845          31.220     -167351.311        1145.943
  22509349.962          32.449      383863.130       -2723.014
  22137806.976          41.870      394554.741       -2818.733
 17 07 17 11 48 43.000328   0  7G16G18G20G21G26G29G31
  21996797.071          23.144     -353578.514        2458.365
  24023333.226          27.097     -368799.102        2576.142
  23033029.103          36.608      -85449.614         551.829
  20967784.343          38.032       -7520.421           9.645
  20699569.322          31.919     -168496.765        1145.280
  22509781.240          30.536      386586.785       -2724.874
  22138270.628          43.246      397373.429       -2819.166
 17 07 17 11 48 44.000328   0  7G16G18G20G21G26G29G31
  21996320.401          23.974     -356035.389        2457.238
  24022837.370          27.882     -371374.766        2575.385
  23032918.778          36.128      -86001.246         551.350
  20967781.341          38.928       -7529.984           9.163
  20699334.883          32.068     -169642.030        1144.177
  22510325.961          29.743      389310.209       -2723.320
  22138806.057          42.304      400192.625       -2819.469
 17 07 17 11 48 45.000328   0  7G16G18G20G21G26G29G31
  21995853.324          25.240     -358491.786        2456.466
  24022344.514          28.291     -373950.481        2575.194
  23032812.053          37.375      -86552.287         550.646
  20967777.746          38.008       -7539.019           8.717
  20699124.730          34.357     -170786.893        1145.238
  22510819.720          30.688      392033.936       -2722.728
  22139346.587          42.367      403012.245       -2819.772
 17 07 17 11 48 46.000327   0  7G16G18G20G21G26G29G31
  21995330.358          23.879     -360947.425        2455.351
  24021790.073          30.245     -376526.064        2575.316
  23032636.246          35.373      -87102.695         549.885
  20967704.469          37.600       -7547.483           8.293
  20698841.002          34.597     -171930.963        1143.876
  22511269.883          35.396      394757.875       -2724.008
  22139808.141          41.802      405832.239       -2820.152
 17 07 17 11 48 47.000327   0  7G16G18G20G21G26G29G31
  21994857.588          20.932     -363398.984        2453.662
  24021312.500          30.794     -379101.619        2575.159
  23032531.322          35.937      -87652.469         549.271
  20967702.671          37.076       -7555.415           8.028
  20698614.660          35.861     -173074.696        1142.854
  22511777.732          35.806      397481.900       -2724.300
  22140345.668          41.157      408652.708       -2820.986
 17 07 17 11 48 48.000327   0  7G16G18G20G21G26G29G31
  21994381.817          22.972     -365855.718        2455.716
  24020817.245          33.369     -381676.765        2574.694
  23032427.891          36.387      -88201.461         548.843
  20967700.573          35.744       -7562.577           6.900
  20698403.006          35.313     -174217.889        1142.715
  22512305.963          34.055      400206.183       -2725.105
  22140882.895          42.778      411473.714       -2821.370
 17 07 17 11 48 49.000327   0  7G16G18G20G21G26G29G31
  21993761.296          18.389     -368308.164        2455.996
  24020181.433          33.666     -384251.812        2574.706
  23032179.714          36.161      -88749.741         547.717
  20967561.516          35.332       -7569.106           6.156
  20698042.101          33.681     -175360.509        1142.172
  22512667.863          33.411      402930.860       -2725.241
  22141277.471          43.045      414295.293       -2821.672
 17 07 17 11 48 50.000327   0  7G16G18G20G21G26G29G31
  21993277.432          18.342     -370761.561        2456.472
  24019702.067          34.389     -386826.789        2574.790
  23032075.684          37.279      -89297.324         547.234
  20967558.519          34.723       -7575.044           5.618
  20697826.250          35.352     -176502.591        1141.878
  22513200.296          36.748      405655.626       -2724.812
  22141812.302          42.610      417117.342       -2822.305
 17 07 17 11 48 51.000327   0  7G16G18G20G21G26G29G31
  21992826.841          20.612     -373217.121        2456.129
  24019203.209          32.909     -389401.581        2574.329
  23031960.866          34.674      -89844.416         546.905
  20967554.623          36.280       -7580.394           5.052
  20697606.203          36.196     -177644.240        1141.448
  22513715.937          38.071      408380.452       -2724.921
  22142353.425          41.397      419939.730       -2822.767
 17 07 17 11 48 52.000327   0  7G16G18G20G21G26G29G31
  21992293.685          22.333     -375671.465        2455.327
  24018656.564          31.595     -391976.290        2574.399
  23031791.058          32.381      -90390.764         546.292
  20967479.548          36.102       -7585.323           4.615
  20697319.779          35.817     -178785.521        1141.167
  22514159.805          35.934      411105.461       -2724.855
  22142813.482          40.809      422762.530       -2822.681
 17 07 17 11 48 53.000327   0  7G16G18G20G21G26G29G31
  21991848.791          23.534     -378129.573        2452.651
  24018151.711          32.004     -394551.044        2574.396
  23031687.330          32.155      -90936.571         545.569
  20967483.147          35.158       -7589.651           3.862
  20697104.828          36.867     -179926.258        1141.001
  22514669.150          35.982      413830.578       -2725.135
  22143357.606          41.037      425585.686       -2823.394
 17 07 17 11 48 54.000327   0  7G16G18G20G21G26G29G31
  21991359.234          25.169     -380583.620        2453.347
  24017666.351          31.813     -397125.655        2574.725
  23031582.401          31.855      -91481.794         544.612
  20967484.945          34.843       -7593.434           3.705
  20696883.581          35.376     -181066.577        1140.400
  22515191.693          35.755      416555.818       -2725.227
  22143893.337          40.900      428409.274       -2823.659
 17 07 17 11 48 55.000326   0  7G16G18G20G21G26G29G31
  21990817.082          26.229     -383037.199        2452.936
  24017119.103          30.248     -399700.188        2574.400
  23031409.295          34.214      -92026.442         544.072
  20967405.677          34.798       -7596.653           2.734
  20696596.551          36.634     -182206.409        1139.627
  22515634.959          35.040      419281.236       -2725.736
  22144361.487          42.151      431233.334       -2824.277
 17 07 17 11 48 56.000326   0  7G16G18G20G21G26G29G31
  21990359.899          27.601     -385490.604        2452.821
  24016617.248          30.159     -402274.580        2574.178
  23031303.167          35.092      -92570.396         543.247
  20967406.275          34.547       -7599.386           2.099
  20696371.107          34.793     -183345.828        1139.331
  22516155.399          36.450      422006.831       -2725.608
  22144896.916          42.506      434057.676       -2824.687
 17 07 17 11 48 57.000326   0  7G16G18G20G21G26G29G31
  21989897.918          26.806     -387943.767        2453.245
  24016136.983          29.840     -404848.864        2574.396
  23031197.341          33.194      -93113.744         542.998
  20967410.171          35.310       -7601.436           1.542
  20696163.353          36.506     -184484.770        1138.568
  22516675.236          35.575      424732.620       -2726.228
  22145437.441          41.602      436882.599       -2825.135
 17 07 17 11 48 58.000326   0  7G16G18G20G21G26G29G31
  21989352.171          26.063     -390396.684        2452.892
  24015576.247          30.416     -407423.160        2574.126
  23031035.926          34.111      -93656.491         542.470
  20967332.399          36.025       -7603.002           1.269
  20695872.127          37.453     -185623.239        1138.196
  22517120.304          35.738      427458.386       -2725.739
  22145900.496          41.700      439707.886       -2825.687
 17 07 17 11 48 59.000326   0  7G16G18G20G21G26G29G31
  21988887.494          25.183     -392849.268        2453.001
  24015074.091          31.153     -409997.362        2574.389
  23030926.203          35.626      -94198.651         542.050
  20967331.802          34.959       -7604.129           1.222
  20695657.476          35.743     -186761.350        1138.133
  22517648.540          38.281      430184.265       -2725.825
  22146437.422          41.355      442533.464       -2825.580
 17 07 17 11 49 00.000326   0  7G16G18G20G21G26G29G31
  21988442.003          26.318     -395301.531        2451.772
  24014574.338          31.135     -412571.443        2574.301
  23030824.874          35.455      -94740.190         541.654
  20967335.396          35.524       -7604.631           0.677
  20695438.930          35.623     -187898.968        1137.422
  22518164.782          37.137      432910.405       -2725.639
  22146977.349          41.618      445359.591       -2826.147
 17 07 17 11 49 01.000326   0  7G16G18G20G21G26G29G31
  21987883.064          24.364     -397753.290        2447.848
  24014024.696          31.093     -415145.346        2573.153
  23030642.175          34.075      -95281.075         540.495
  20967260.923          33.676       -7604.562           0.101
  20695156.999          33.456     -189036.061        1136.615
  22518617.943          35.441      435636.660       -2726.450
  22147442.201          41.784      448186.059       -2826.533
 17 07 17 11 49 02.000326   0  7G16G18G20G21G26G29G31
  21987405.194          25.743     -400202.103        2451.565
  24013519.542          29.682     -417719.276        2573.717
  23030542.944          34.613      -95821.331         540.023
  20967265.120          35.349       -7603.970          -0.976
  20694930.356          37.950     -190172.782        1136.357
  22519138.081          35.978      438363.057       -2726.473
  22147979.131          41.794      451012.975       -2827.253
 17 07 17 11 49 03.000326   0  7G16G18G20G21G26G29G31
  21986962.700          25.973     -402653.730        2451.685
  24013038.976          29.177     -420293.012        2573.525
  23030444.010          33.686      -96361.018         539.128
  20967265.120          36.679       -7602.691          -1.493
  20694717.503          36.252     -191308.904        1136.128
  22519660.022          36.592      441089.671       -2726.496
  22148522.954          41.696      453840.360       -2827.580
 17 07 17 11 49 04.000326   0  7G16G18G20G21G26G29G31
  21986427.746          27.048     -405104.972        2450.713
  24012464.450          27.464     -422866.405        2573.369
  23030265.809          35.651      -96899.839         538.418
  20967193.644          35.473       -7600.701          -2.183
  20694426.280          33.368     -192444.397        1135.230
  22520107.184          39.227      443816.516       -2727.002
  22148985.110          40.309      456668.227       -2828.316
 17 07 17 11 49 05.000326   0  7G16G18G20G21G26G29G31
  21985946.578          25.363     -407555.771        2451.397
  24011982.082          28.286     -425439.720        2573.063
  23030159.384          36.153      -97438.022         537.663
  20967197.544          36.320       -7598.199          -2.700
  20694208.327          31.368     -193579.407        1135.130
  22520623.130          40.307      446543.561       -2727.520
  22149527.432          39.917      459496.710       -2828.813
 17 07 17 11 49 06.000325   0  7G16G18G20G21G26G29G31
  21985404.727          24.900     -410005.866        2449.733
  24011421.647          27.681     -428012.963        2573.094
  23029993.472          34.685      -97975.544         537.698
  20967127.268          36.252       -7594.987          -3.228
  20693924.901          34.829     -194713.879        1134.439
  22521070.894          37.567      449270.763       -2726.755
  22149995.281          41.227      462325.528       -2829.067
 17 07 17 11 49 07.000325   0  7G16G18G20G21G26G29G31
  21984944.547          24.380     -412456.252        2449.981
  24010942.577          27.036     -430586.152        2573.119
  23029896.942          34.446      -98512.469         536.604
  20967126.365          37.205       -7591.383          -3.914
  20693709.347          35.087     -195847.977        1133.636
  22521587.137          38.299      451998.140       -2727.452
  22150529.214          41.432      465154.768       -2829.789
 17 07 17 11 49 08.000325   0  7G16G18G20G21G26G29G31
  21984456.783          21.769     -414905.084        2455.493
  24010437.725          27.345     -433159.148        2572.628
  23029787.215          34.180      -99048.810         536.138
  20967126.666          36.849       -7587.145          -4.526
  20693495.298          35.231     -196981.517        1133.104
  22522101.281          37.199      454725.657       -2727.886
  22151069.141          40.891      467984.434       -2830.261
 17 07 17 11 49 09.000325   0  7G16G18G20G21G26G29G31
  21983953.606          23.036     -417369.354        2455.452
  24009884.784          29.633     -435732.008        2573.040
  23029617.110          35.280      -99584.382         535.627
  20967055.190          36.432       -7582.248          -4.906
  20693214.568          35.025     -198114.123        1131.018
  22522552.343          38.549      457453.378       -2727.654
  22151532.492          41.732      470814.723       -2830.539
 17 07 17 11 49 10.000325   0  7G16G18G20G21G26G29G31
  21983485.932          25.321     -419820.115        2444.918
  24009381.433          29.549     -438304.544        2572.355
  23029516.976          35.112     -100119.183         534.669
  20967057.589          35.347       -7576.572          -6.627
  20693005.309          30.127     -199246.890        1131.841
  22523076.678          39.372      460181.454       -2727.851
  22152073.920          39.936      473645.379       -2830.812
 17 07 17 11 49 11.000325   0  7G16G18G20G21G26G29G31
  21983011.656          26.417     -422268.955        2448.135
  24008894.868          30.424     -440877.134        2572.518
  23029414.146          34.965     -100653.370         533.697
  20967068.679          36.072       -7570.394          -6.378
  20692775.970          33.610     -200379.050        1132.175
  22523593.222          39.448      462909.584       -2728.118
  22152611.147          41.539      476476.529       -2831.621
 17 07 17 11 49 12.000325   0  7G16G18G20G21G26G29G31
  21982472.506          25.377     -424717.493        2448.222
  24008340.126          30.713     -443449.478        2572.709
  23029242.842          34.263     -101186.904         533.615
  20966995.405          35.961       -7563.737          -6.820
  20692489.241          35.601     -201510.527        1131.220
  22524040.986          38.025      465637.889       -2728.083
  22153077.797          42.622      479308.129       -2831.660
 17 07 17 11 49 13.000325   0  7G16G18G20G21G26G29G31
  21981984.445          25.464     -427165.823        2448.760
  24007861.357          31.337     -446021.620        2572.515
  23029128.020          32.743     -101719.789         532.435
  20966992.709          35.325       -7556.367          -7.594
  20692279.088          36.421     -202641.536        1130.801
  22524566.220          36.228      468366.445       -2728.229
  22153621.323          42.790      482140.287       -2832.376
 17 07 17 11 49 14.000325   0  7G16G18G20G21G26G29G31
  21981522.765          25.367     -429613.692        2447.423
  24007358.006          33.905     -448593.566        2571.704
  23029030.290          32.207     -102251.876         531.562
  20966987.910          35.314       -7548.261          -8.424
  20692063.237          35.865     -203771.951        1129.749
  22525079.165          39.404      471095.315       -2728.808
  22154157.651          43.455      484972.964       -2833.239
 17 07 17 11 49 15.000325   0  7G16G18G20G21G26G29G31
  21981010.592          22.156     -432061.242        2445.901
  24006802.365          34.336     -451165.289        2571.711
  23028855.386          32.812     -102783.236         531.408
  20966923.030          35.805       -7539.591          -9.011
  20691772.613          32.121     -204901.671        1129.561
  22525527.230          39.124      473824.375       -2728.973
  22154626.700          41.126      487806.097       -2833.195
 17 07 17 11 49 16.000325   0  7G16G18G20G21G26G29G31
  21980521.331          22.670     -434513.824        2449.000
  24006309.505          34.653     -453736.872        2571.718
  23028758.550          32.363     -103313.942         530.934
  20966922.132          35.189       -7530.181          -9.771
  20691559.759          34.190     -206030.848        1129.197
  22526055.465          38.579      476553.697       -2729.349
  22155163.630          41.026      490639.832       -2834.127
 17 07 17 11 49 17.000325   0  7G16G18G20G21G26G29G31
  21980050.957          27.621     -436960.666        2446.819
  24005826.243          33.535     -456308.289        2570.944
  23028655.424          33.339     -103843.944         529.079
  20966922.729          35.449       -7520.197         -10.591
  20691339.411          34.630     -207159.610        1128.252
  22526570.509          40.259      479283.207       -2729.945
  22155698.758          41.743      493474.011       -2834.693
 17 07 17 11 49 18.000324   0  7G16G18G20G21G26G29G31
  21979525.295          28.748     -439407.082        2446.057
  24005257.711          32.457     -458879.449        2571.061
  23028483.518          33.549     -104373.100         528.729
  20966847.658          34.948       -7509.470         -11.198
  20691060.482          37.172     -208287.603        1127.675
  22527020.371          41.028      482013.058       -2730.151
  22156168.108          42.575      496308.719       -2834.909
 17 07 17 11 49 19.000324   0  7G16G18G20G21G26G29G31
  21979059.117          29.918     -441853.248        2446.052
  24004777.742          33.538     -461450.496        2571.377
  23028382.485          35.462     -104901.748         528.436
  20966862.648          34.949       -7498.277         -11.731
  20690840.431          37.017     -209415.236        1127.184
  22527535.414          41.046      484742.999       -2729.939
  22156704.737          42.003      499143.839       -2835.246
 17 07 17 11 49 20.000324   0  7G16G18G20G21G26G29G31
  21978606.432          30.632     -444299.078        2445.667
  24004283.382          34.106     -464021.430        2570.721
  23028289.249          34.598     -105429.691         527.629
  20966859.049          36.461       -7486.500         -12.238
  20690624.580          37.256     -210542.449        1126.816
  22528056.155          39.506      487473.104       -2730.086
  22157247.360          41.666      501979.411       -2835.802
 17 07 17 11 49 21.000324   0  7G16G18G20G21G26G29G31
  21978059.184          29.529     -446744.762        2445.156
  24003734.337          34.467     -466592.371        2571.187
  23028117.342          33.294     -105957.104         527.214
  20966785.174          36.106       -7474.156         -12.670
  20690338.157          36.205     -211669.150        1126.385
  22528510.214          39.343      490203.313       -2730.218
  22157712.814          41.431      504815.336       -2835.970
 17 07 17 11 49 22.000324   0  7G16G18G20G21G26G29G31
  21977603.201          28.791     -449190.110        2445.166
  24003227.090          33.759     -469163.186        2570.972
  23028022.308          31.724     -106483.896         526.380
  20966793.567          35.431       -7461.321         -12.998
  20690132.196          36.410     -212795.402        1125.801
  22529027.656          37.984      492933.636       -2730.599
  22158250.639          41.566      507651.674       -2836.706
 17 07 17 11 49 23.000324   0  7G16G18G20G21G26G29G31
  21977134.323          29.267     -451635.235        2444.750
  24002748.622          34.418     -471733.847        2570.717
  23027925.778          31.585     -107010.043         526.313
  20966791.770          35.242       -7447.895         -13.454
  20689916.049          36.135     -213921.171        1125.681
  22529548.694          38.322      495664.190       -2730.535
  22158795.661          41.982      510488.455       -2836.921
 17 07 17 11 49 24.000324   0  7G16G18G20G21G26G29G31
  21976595.172          28.204     -454080.306        2444.795
  24002187.284          31.185     -474304.575        2570.407
  23027744.575          31.689     -107535.647         524.949
  20966729.887          36.515       -7434.078         -14.188
  20689635.018          34.781     -215046.683        1125.210
  22529999.760          39.413      498394.724       -2730.845
  22159267.411          40.685      513325.553       -2837.366
 17 07 17 11 49 25.000324   0  7G16G18G20G21G26G29G31
  21976123.301          28.446     -456524.806        2445.026
  24001690.227          29.492     -476875.018        2570.279
  23027650.440          31.962     -108060.518         524.705
  20966735.881          36.792       -7419.453         -15.187
  20689415.568          34.031     -216171.500        1123.860
  22530513.302          38.768      501125.496       -2731.215
  22159802.539          40.768      516163.174       -2837.985
 17 07 17 11 49 26.000324   0  7G16G18G20G21G26G29G31
  21975672.112          29.473     -458968.999        2444.139
  24001204.566          31.626     -479445.362        2570.023
  23027556.305          31.826     -108584.729         524.071
  20966733.185          35.832       -7404.344         -15.309
  20689206.610          36.310     -217295.950        1124.270
  22531035.540          36.975      503856.409       -2731.104
  22160347.562          41.337      519001.238       -2838.079
 17 07 17 11 49 27.000324   0  7G16G18G20G21G26G29G31
  21975137.455          31.450     -461413.095        2443.739
  24000639.628          33.271     -482015.829        2570.490
  23027373.309          34.492     -109108.468         522.936
  20966666.207          35.531       -7388.798         -15.816
  20688919.585          37.934     -218419.938        1123.581
  22531476.712          36.992      506587.433       -2731.357
  22160810.315          41.560      521839.600       -2838.728
 17 07 17 11 49 28.000324   0  7G16G18G20G21G26G29G31
  21974660.484          29.804     -463856.914        2443.524
  24000158.164          33.497     -484586.049        2570.284
  23027280.072          35.790     -109631.540         522.339
  20966673.702          35.425       -7372.636         -16.474
  20688703.433          36.811     -219543.493        1123.237
  22532001.047          37.329      509318.529       -2731.079
  22161350.242          40.929      524678.339       -2839.112
 17 07 17 11 49 29.000324   0  7G16G18G20G21G26G29G31
  21974190.711          29.559     -466300.575        2443.317
  23999670.399          32.622     -487156.257        2570.171
  23027178.141          34.973     -110154.087         522.247
  20966673.100          34.999       -7355.969         -17.168
  20688491.784          36.218     -220666.553        1122.843
  22532522.686          38.481      512049.799       -2731.565
  22161896.766          42.063      527517.495       -2839.507
 17 07 17 11 49 30.000323   0  7G16G18G20G21G26G29G31
  21973592.976          27.530     -468743.965        2443.465
  23999025.596          33.077     -489726.340        2569.757
  23026935.661          35.576     -110675.996         521.569
  20966526.553          34.944       -7338.778         -17.732
  20688132.078          35.418     -221789.261        1122.297
  22532900.174          39.387      514781.159       -2731.498
  22162289.243          41.807      530357.096       -2839.931
 17 07 17 11 49 31.000323   0  7G16G18G20G21G26G29G31
  21973127.997          29.012     -471186.880        2442.970
  23998549.524          33.084     -492296.254        2569.675
  23026827.736          36.333     -111197.160         521.073
  20966534.048          35.109       -7320.896         -18.032
  20687922.523          36.112     -222911.352        1121.816
  22533421.211          39.739      517512.809       -2731.717
  22162828.267          42.078      533197.179       -2840.173
 17 07 17 11 49 32.000323   0  7G16G18G20G21G26G29G31
  21972662.718          29.828     -473629.607        2442.557
  23998050.369          31.676     -494866.162        2569.873
  23026738.094          36.425     -111717.728         520.306
  20966539.143          35.212       -7302.553         -18.242
  20687702.777          35.172     -224033.001        1121.457
  22533942.253          38.580      520244.514       -2731.992
  22163370.293          41.542      536037.581       -2840.338
 17 07 17 11 49 33.000323   0  7G16G18G20G21G26G29G31
  21972122.066          31.647     -476072.000        2442.424
  23997503.423          31.603     -497435.694        2569.437
  23026561.093          37.437     -112237.578         519.271
  20966467.968          35.915       -7283.395         -19.611
  20687428.939          36.962     -225154.023        1120.936
  22534389.716          38.423      522976.568       -2732.223
  22163842.941          42.134      538878.624       -2841.322
 17 07 17 11 49 34.000323   0  7G16G18G20G21G26G29G31
  21971667.580          32.828     -478513.930        2441.729
  23996999.474          30.845     -500005.136        2569.532
  23026459.166          36.116     -112756.731         518.718
  20966478.460          35.234       -7263.717         -20.094
  20687202.296          34.510     -226274.573        1120.221
  22534917.349          35.767      525708.861       -2732.149
  22164382.567          41.925      541720.133       -2841.732
 17 07 17 11 49 35.000323   0  7G16G18G20G21G26G29G31
  21971134.126          32.003     -480955.701        2441.374
  23996436.935          28.599     -502574.558        2569.391
  23026292.054          38.427     -113275.259         517.944
  20966408.781          35.352       -7243.347         -20.729
  20686933.257          37.299     -227394.601        1119.555
  22535351.327          38.513      528441.194       -2732.495
  22164852.218          42.292      544562.157       -2842.631
 17 07 17 11 49 36.000323   0  7G16G18G20G21G26G29G31
  21970669.445          32.066     -483396.982        2441.429
  23995963.267          28.032     -505143.513        2568.480
  23026193.421          38.414     -113792.990         517.520
  20966407.581          35.153       -7222.397         -21.240
  20686712.311          37.071     -228514.011        1118.910
  22535877.460          39.749      531173.918       -2732.982
  22165397.541          43.749      547404.618       -2842.768
 17 07 17 11 49 37.000323   0  7G16G18G20G21G26G29G31
  21970205.369          31.766     -485838.025        2440.929
  23995462.611          27.683     -507712.477        2568.807
  23026092.393          37.129     -114310.041         516.675
  20966406.683          36.186       -7200.931         -21.839
  20686497.359          38.043     -229633.044        1118.970
  22536394.602          39.539      533906.768       -2733.205
  22165935.968          42.411      550247.561       -2843.047
 17 07 17 11 49 38.000323   0  7G16G18G20G21G26G29G31
  21969674.311          31.400     -488278.706        2440.219
  23994914.465          27.794     -510281.393        2569.186
  23025925.883          35.195     -114826.589         516.364
  20966348.997          36.153       -7178.817         -22.029
  20686220.228          38.841     -230751.514        1118.115
  22536833.675          35.547      536639.599       -2733.156
  22166403.516          41.943      553090.890       -2843.470
 17 07 17 11 49 39.000323   0  7G16G18G20G21G26G29G31
  21969205.136          31.573     -490719.189        2440.268
  23994434.497          27.801     -512850.159        2569.306
  23025824.850          35.893     -115342.461         515.530
  20966348.997          35.820       -7156.146         -23.257
  20686006.476          37.415     -231869.613        1117.904
  22537357.112          36.628      539372.720       -2733.243
  22166948.242          42.534      555934.630       -2844.088
 17 07 17 11 49 40.000323   0  7G16G18G20G21G26G29G31
  21968748.551          31.738     -493159.436        2440.259
  23993947.033          28.430     -515418.756        2568.592
  23025724.123          36.803     -115857.655         514.899
  20966355.593          35.588       -7132.968         -23.457
  20685793.924          38.272     -232987.145        1117.263
  22537885.047          38.510      542106.011       -2733.356
  22167485.167          42.593      558778.796       -2844.253
 17 07 17 11 49 41.000322   0  7G16G18G20G21G26G29G31
  21968196.805          33.279     -495599.145        2439.474
  23993381.799          29.560     -517987.167        2568.248
  23025564.205          36.730     -116372.129         514.150
  20966287.114          35.381       -7108.996         -24.267
  20685514.092          36.967     -234104.104        1116.810
  22538335.210          39.049      544839.566       -2733.609
  22167956.018          41.697      561623.571       -2844.945
 17 07 17 11 49 42.000322   0  7G16G18G20G21G26G29G31
  21967735.125          33.902     -498038.856        2439.716
  23992888.643          29.512     -520555.563        2568.479
  23025459.281          36.244     -116886.009         513.711
  20966293.112          35.766       -7084.570         -24.516
  20685297.639          38.593     -235220.566        1116.519
  22538847.256          37.380      547573.242       -2733.463
  22168499.841          41.275      564468.673       -2845.297
 17 07 17 11 49 43.000322   0  7G16G18G20G21G26G29G31
  21967274.644          32.621     -500478.124        2439.386
  23992397.882          29.572     -523123.733        2568.010
  23025369.941          36.849     -117399.212         512.731
  20966294.011          35.575       -7059.490         -25.565
  20685079.992          38.829     -236336.576        1115.628
  22539384.182          38.250      550307.006       -2733.912
  22169041.866          41.835      567314.221       -2845.807
 17 07 17 11 49 44.000322   0  7G16G18G20G21G26G29G31
  21966732.497          33.742     -502916.896        2438.937
  23991845.539          31.977     -525691.723        2568.434
  23025193.240          37.140     -117911.726         512.317
  20966231.827          35.542       -7033.866         -25.782
  20684794.462          39.740     -237452.106        1115.499
  22539820.555          37.826      553041.052       -2733.843
  22169512.713          41.342      570160.217       -2846.389
 17 07 17 11 49 45.000322   0  7G16G18G20G21G26G29G31
  21966267.815          33.667     -505355.758        2438.639
  23991342.187          31.521     -528259.812        2568.002
  23025103.899          37.525     -118423.855         511.765
  20966236.626          35.094       -7007.876         -26.304
  20684579.812          39.023     -238567.259        1115.109
  22540347.591          38.061      555775.074       -2734.031
  22170051.440          42.308      573006.521       -2846.553
 17 07 17 11 49 46.000322   0  7G16G18G20G21G26G29G31
  21965808.835          31.552     -507794.277        2438.322
  23990864.016          31.541     -530827.914        2568.594
  23025005.868          38.041     -118935.339         511.315
  20966248.017          35.993       -6981.356         -26.463
  20684369.358          39.329     -239682.037        1114.527
  22540859.934          38.059      558509.196       -2734.053
  22170592.266          42.964      575853.174       -2846.875
 17 07 17 11 49 47.000322   0  7G16G18G20G21G26G29G31
  21965256.793          30.161     -510232.661        2438.930
  23990297.587          31.923     -533395.766        2568.008
  23024836.060          36.422     -119446.156         510.885
  20966175.939          36.348       -6954.101         -27.109
  20684082.629          37.907     -240796.309        1114.337
  22541312.195          37.569      561243.560       -2734.008
  22171061.616          42.577      578700.350       -2846.909
 17 07 17 11 49 48.000322   0  7G16G18G20G21G26G29G31
  21964806.804          31.150     -512670.582        2437.381
  23989816.720          33.777     -535963.443        2567.144
  23024741.327          35.184     -119956.247         509.819
  20966182.836          36.638       -6926.352         -28.128
  20683868.576          38.745     -241910.001        1113.420
  22541834.733          36.475      563978.073       -2734.848
  22171602.141          42.591      581547.963       -2847.883
 17 07 17 11 49 49.000322   0  7G16G18G20G21G26G29G31
  21964339.125          33.834     -515108.163        2437.244
  23989328.654          35.504     -538531.073        2567.521
  23024648.091          35.569     -120465.709         508.879
  20966188.533          37.636       -6897.939         -28.795
  20683660.220          39.026     -243023.197        1112.854
  22542358.174          37.533      566712.846       -2734.807
  22172143.865          43.180      584396.018       -2848.252
 17 07 17 11 49 50.000322   0  7G16G18G20G21G26G29G31
  21963801.475          33.775     -517545.496        2437.467
  23988759.524          33.810     -541098.419        2566.955
  23024472.284          35.549     -120974.499         508.462
  20966123.051          36.686       -6868.948         -29.379
  20683369.896          38.214     -244135.842        1112.498
  22542792.445          35.744      569447.780       -2735.175
  22172620.112          42.882      587244.551       -2848.611
 17 07 17 11 49 51.000322   0  7G16G18G20G21G26G29G31
  21963334.996          33.308     -519982.485        2436.666
  23988276.559          34.494     -543665.754        2566.959
  23024372.155          34.394     -121482.588         507.638
  20966126.650          35.088       -6839.314         -30.232
  20683171.736          38.443     -245247.987        1111.802
  22543321.278          37.315      572182.773       -2734.887
  22173156.440          42.354      590093.557       -2849.246
 17 07 17 11 49 52.000322   0  7G16G18G20G21G26G29G31
  21962886.805          34.000     -522419.079        2436.343
  23987785.200          33.095     -546232.880        2567.272
  23024281.318          35.189     -121990.056         506.927
  20966131.148          34.154       -6809.120         -30.679
  20682955.886          39.839     -246359.675        1111.325
  22543843.816          33.897      574917.962       -2735.481
  22173700.564          42.030      592943.022       -2849.756
 17 07 17 11 49 53.000321   0  7G16G18G20G21G26G29G31
  21962344.055          35.416     -524855.359        2436.199
  23987218.164          30.464     -548799.690        2566.968
  23024107.915          35.998     -122496.742         506.411
  20966068.066          34.679       -6778.235         -31.193
  20682675.452          40.622     -247470.770        1110.819
  22544290.982          36.348      577653.570       -2735.373
  22174175.310          42.541      595792.980       -2850.044
 17 07 17 11 49 54.000321   0  7G16G18G20G21G26G29G31
  21961883.574          35.465     -527291.641        2436.236
  23986688.733          26.462     -551366.747        2567.422
  23024017.374          35.185     -123003.028         506.059
  20966075.560          35.790       -6747.020         -31.428
  20682462.599          40.800     -248581.513        1110.605
  22544805.127          35.082      580389.097       -2735.583
  22174710.138          40.670      598643.255       -2850.450
 17 07 17 11 49 55.000321   0  7G16G18G20G21G26G29G31
  21961344.423          34.760     -529727.332        2435.521
  23986176.561          27.413     -553933.683        2567.663
  23023844.268          36.408     -123508.466         505.255
  20966012.478          34.027       -6715.149         -32.316
  20682178.273          39.932     -249691.792        1109.871
  22545258.588          36.467      583124.843       -2735.892
  22175187.881          41.158      601494.007       -2851.082
 17 07 17 11 49 56.000321   0  7G16G18G20G21G26G29G31
  21960875.846          32.748     -532162.755        2435.602
  23985688.199          28.372     -556500.072        2566.778
  23023752.833          35.887     -124013.277         504.489
  20966020.570          32.918       -6682.548         -33.019
  20681967.217          40.084     -250801.371        1109.437
  22545782.924          37.257      585860.904       -2736.302
  22175728.109          41.488      604345.227       -2851.549
 17 07 17 11 49 57.000321   0  7G16G18G20G21G26G29G31
  21960413.869          31.367     -534597.780        2434.960
  23985197.739          28.242     -559066.393        2566.150
  23023654.501          34.877     -124517.359         503.884
  20966017.573          33.198       -6649.312         -33.463
  20681751.965          39.421     -251910.531        1108.882
  22546302.465          36.310      588597.044       -2736.098
  22176267.435          41.371      607196.989       -2851.895
 17 07 17 11 49 58.000321   0  7G16G18G20G21G26G29G31
  21959884.608          30.679     -537032.812        2435.055
  23984642.695          27.961     -561632.879        2566.378
  23023488.890          34.352     -125020.957         503.245
  20965956.288          33.282       -6615.690         -33.797
  20681473.333          39.488     -253019.327        1108.532
  22546746.333          35.831      591333.305       -2736.522
  22176745.479          39.878      610049.050       -2852.373
 17 07 17 11 49 59.000321   0  7G16G18G20G21G26G29G31
  21959416.933          31.037     -539467.368        2434.127
  23984133.349          25.357     -564199.054        2566.032
  23023392.059          35.839     -125523.922         502.455
  20965969.481          31.780       -6581.499         -34.162
  20681264.977          38.526     -254127.540        1107.930
  22547266.471          37.403      594069.700       -2736.672
  22177286.902          41.392      612901.618       -2853.052
 17 07 17 11 50 00.000321   0  7G16G18G20G21G26G29G31
  21958959.450          31.888     -541901.506        2433.856
  23983640.791          26.326     -566765.143        2565.822
  23023290.128          35.452     -126025.973         501.643
  20965955.390          29.224       -6546.393         -35.713
  20681056.320          38.223     -255235.158        1107.268
  22547784.813          38.057      596806.477       -2736.819
  22177825.032          41.716      615754.676       -2853.384
 17 07 17 11 50 01.000321   0  7G16G18G20G21G26G29G31
  21958423.894          31.755     -544335.251        2433.738
  23983095.341          26.829     -569330.806        2566.064
  23023126.916          35.142     -126527.301         500.711
  20965896.805          30.924       -6510.768         -36.239
  20680774.390          38.904     -256342.063        1106.363
  22548239.775          37.646      599543.513       -2737.110
  22178296.179          42.050      618608.321       -2854.019
 17 07 17 11 50 02.000321   0  7G16G18G20G21G26G29G31
  21957963.413          31.717     -546768.707        2433.652
  23982600.086          26.788     -571896.350        2565.652
  23023037.876          35.109     -127028.065         500.749
  20965912.096          31.813       -6474.528         -36.427
  20680564.538          38.175     -257448.630        1106.447
  22548751.816          35.226      602280.691       -2737.230
  22178844.199          41.914      621462.406       -2854.144
 17 07 17 11 50 03.000321   0  7G16G18G20G21G26G29G31
  21957495.137          31.159     -549201.951        2433.161
  23982094.636          26.518     -574461.858        2565.738
  23022942.842          34.623     -127528.162         499.829
  20965915.394          31.501       -6437.782         -36.973
  20680358.879          37.947     -258554.700        1105.883
  22549276.457          34.685      605018.003       -2737.409
  22179383.529          40.306      624316.818       -2854.562
 17 07 17 11 50 04.000320   0  7G16G18G20G21G26G29G31
  21956961.081          32.120     -551634.974        2433.005
  23981571.671          27.569     -577027.417        2565.967
  23022778.130          35.783     -128027.729         499.389
  20965848.415          31.588       -6400.410         -37.674
  20680070.955          38.505     -259660.287        1105.459
  22549727.519          36.224      607755.393       -2737.542
  22179858.572          40.528      627171.612       -2854.835
 17 07 17 11 50 05.000320   0  7G16G18G20G21G26G29G31
  21956492.207          30.165     -554067.432        2433.171
  23981082.410          30.007     -579592.894        2565.696
  23022680.997          36.271     -128526.852         498.697
  20965855.308          32.516       -6362.818         -38.118
  20679865.897          38.101     -260765.691        1105.013
  22550258.747          37.591      610492.733       -2737.393
  22180396.701          41.293      630026.753       -2855.299
 17 07 17 11 50 06.000320   0  7G16G18G20G21G26G29G31
  21956038.022          31.335     -556500.015        2432.341
  23980588.652          32.673     -582158.322        2565.661
  23022590.762          35.668     -129025.214         498.131
  20965861.904          35.027       -6324.473         -38.386
  20679650.343          39.093     -261870.500        1104.759
  22550778.890          36.940      613230.378       -2737.636
  22180943.521          41.330      632882.216       -2855.656
 17 07 17 11 50 07.000320   0  7G16G18G20G21G26G29G31
  21955429.790          29.164     -558932.258        2432.481
  23979953.141          31.442     -584723.683        2564.651
  23022347.977          35.204     -129523.121         497.437
  20965737.240          35.766       -6285.710         -39.134
  20679296.937          37.750     -262974.914        1104.220
  22551154.877          36.140      615967.951       -2737.687
  22181343.493          41.619      635738.093       -2856.259
 17 07 17 11 50 08.000320   0  7G16G18G20G21G26G29G31
  21954980.102          29.821     -561364.582        2432.422
  23979473.474          32.099     -587288.953        2565.445
  23022258.340          34.532     -130020.426         497.089
  20965735.739          35.589       -6246.387         -39.333
  20679083.787          36.614     -264078.890        1103.700
  22551671.421          35.571      618705.727       -2737.838
  22181891.513          41.154      638594.326       -2856.326
 17 07 17 11 50 09.000320   0  7G16G18G20G21G26G29G31
  21954511.224          30.704     -563796.617        2432.261
  23978997.105          34.370     -589854.284        2565.249
  23022158.507          34.003     -130517.129         496.494
  20965744.133          35.821       -6206.673         -39.932
  20678871.832          38.268     -265182.524        1103.386
  22552196.956          37.818      621443.456       -2737.724
  22182438.634          40.901      641450.919       -2856.888
 17 07 17 11 50 10.000320   0  7G16G18G20G21G26G29G31
  21953978.669          29.435     -566228.493        2431.927
  23978427.072          34.555     -592419.499        2565.184
  23021987.203          36.520     -131013.380         495.871
  20965687.647          36.507       -6166.559         -40.449
  20678592.001          38.542     -266285.803        1102.983
  22552643.520          39.313      624181.235       -2737.967
  22182902.286          40.627      644307.767       -2856.951
 17 07 17 11 50 11.000320   0  7G16G18G20G21G26G29G31
  21953506.793          27.617     -568660.154        2432.234
  23977942.907          35.017     -594984.818        2565.207
  23021904.157          36.319     -131509.074         496.057
  20965685.548          35.427       -6125.901         -40.882
  20678381.848          38.492     -267388.694        1102.745
  22553164.261          39.642      626919.091       -2737.801
  22183447.012          40.846      647164.910       -2857.620
 17 07 17 11 50 12.000320   0  7G16G18G20G21G26G29G31
  21953052.608          29.259     -571091.440        2431.243
  23977453.947          34.969     -597550.074        2565.353
  23021802.828          34.697     -132004.256         494.966
  20965691.848          32.670       -6084.871         -40.692
  20678169.592          36.886     -268491.261        1102.352
  22553683.200          38.409      629656.989       -2737.704
  22183989.038          40.250      650022.402       -2857.520
 17 07 17 11 50 13.000319   0  7G16G18G20G21G26G29G31
  21952509.561          28.393     -573522.591        2430.713
  23976884.813          34.524     -600115.276        2565.373
  23021633.622          35.059     -132498.839         494.538
  20965637.756          34.848       -6043.208         -41.889
  20677892.757          39.311     -269593.291        1101.707
  22554133.965          38.959      632395.022       -2738.077
  22184460.783          40.698      652880.248       -2858.079
 17 07 17 11 50 14.000319   0  7G16G18G20G21G26G29G31
  21952036.486          28.421     -575953.694        2430.995
  23976406.947          34.058     -602680.470        2564.953
  23021543.985          34.940     -132992.876         493.745
  20965646.150          36.534       -6001.095         -42.385
  20677685.601          40.497     -270695.083        1101.658
  22554650.208          39.623      635133.051       -2738.140
  22185009.405          41.642      655738.419       -2858.282
 17 07 17 11 50 15.000319   0  7G16G18G20G21G26G29G31
  21951515.322          29.136     -578384.431        2430.628
  23975839.012          33.840     -605245.584        2565.082
  23021370.578          34.782     -133486.309         493.196
  20965578.871          35.379       -5958.466         -42.870
  20677406.668          41.012     -271796.349        1100.951
  22555108.163          40.075      637871.241       -2738.166
  22185477.555          41.308      658596.983       -2858.817
 17 07 17 11 50 16.000319   0  7G16G18G20G21G26G29G31
  21951045.846          30.247     -580814.970        2430.265
  23975349.752          32.733     -607810.527        2564.417
  23021276.743          36.914     -133979.111         492.447
  20965586.069          34.183       -5915.266         -43.506
  20677195.617          39.935     -272897.175        1100.648
  22555622.307          40.102      640609.584       -2738.304
  22186021.679          40.531      661456.039       -2859.389
 17 07 17 11 50 17.000319   0  7G16G18G20G21G26G29G31
  21950595.861          28.073     -583245.091        2428.444
  23974864.989          32.268     -610375.240        2564.300
  23021183.206          36.681     -134471.115         491.495
  20965594.763          33.832       -5871.251         -44.518
  20676991.157          38.642     -273997.225        1099.748
  22556148.746          38.423      643348.256       -2738.940
  22186565.201          41.378      664315.576       -2859.835
 17 07 17 11 50 18.000319   0  7G16G18G20G21G26G29G31
  21950053.112          24.596     -585675.068        2431.116
  23974301.853          32.041     -612939.982        2564.672
  23021024.492          36.543     -134962.649         491.128
  20965530.481          32.684       -5826.910         -44.894
  20676714.322          35.442     -275097.079        1099.852
  22556593.512          39.824      646086.946       -2738.771
  22187033.054          40.808      667175.483       -2860.322
 17 07 17 11 50 19.000319   0  7G16G18G20G21G26G29G31
  21949602.220          26.086     -588104.655        2428.339
  23973814.390          34.107     -615504.742        2564.551
  23020928.258          37.341     -135453.831         491.196
  20965534.377          33.929       -5782.280         -44.942
  20676493.677          34.451     -276196.668        1099.385
  22557113.952          39.276      648825.550       -2738.383
  22187579.573          41.008      670035.496       -2860.026
 17 07 17 11 50 20.000319   0  7G16G18G20G21G26G29G31
  21949135.444          26.838     -590534.169        2429.918
  23973329.326          32.441     -618069.410        2564.600
  23020835.323          36.006     -135944.041         490.226
  20965541.274          35.520       -5736.886         -45.372
  20676282.621          38.122     -277295.531        1098.897
  22557638.588          38.932      651564.441       -2738.666
  22188133.591          42.411      672896.130       -2860.522
 17 07 17 11 50 21.000319   0  7G16G18G20G21G26G29G31
  21948603.186          28.678     -592963.345        2428.606
  23972773.982          31.456     -620633.840        2564.011
  23020668.813          35.945     -136433.769         489.576
  20965483.889          36.201       -5690.914         -46.457
  20675999.793          38.445     -278394.081        1098.120
  22558087.849          39.825      654303.547       -2739.238
  22188598.443          41.544      675757.162       -2861.197
 17 07 17 11 50 22.000319   0  7G16G18G20G21G26G29G31
  21948133.714          26.096     -595392.331        2429.235
  23972285.620          32.694     -623198.192        2564.283
  23020580.375          36.881     -136922.861         488.665
  20965494.678          35.932       -5644.469         -46.907
  20675795.333          37.460     -279492.025        1097.338
  22558610.090          39.414      657042.618       -2739.273
  22189148.561          41.845      678618.571       -2861.825
 17 07 17 11 50 23.000319   0  7G16G18G20G21G26G29G31
  21947698.414          25.698     -597820.818        2428.836
  23971811.349          32.433     -625762.465        2564.498
  23020491.034          36.913     -137411.217         488.033
  20965503.974          36.015       -5597.320         -47.403
  20675583.679          36.898     -280589.537        1097.129
  22559124.832          38.190      659781.996       -2739.426
  22189693.283          41.638      681480.429       -2861.971
 17 07 17 11 50 24.000319   0  7G16G18G20G21G26G29G31
  21947145.770          29.642     -600249.103        2427.910
  23971241.918          32.412     -628326.468        2563.392
  23020327.521          36.820     -137899.101         487.397
  20965439.391          34.860       -5549.611         -48.252
  20675303.847          38.869     -281686.512        1096.510
  22559578.891          38.475      662521.518       -2739.774
  22190164.731          43.103      684342.776       -2862.696
 17 07 17 11 50 25.000319   0  7G16G18G20G21G26G29G31
  21946673.598          29.098     -602677.023        2427.802
  23970760.750          31.582     -630890.433        2563.989
  23020232.191          36.022     -138386.131         486.585
  20965448.086          34.508       -5501.417         -48.322
  20675098.493          38.582     -282783.059        1096.455
  22560095.736          38.438      665261.188       -2739.452
  22190712.454          42.586      687205.593       -2862.847
 17 07 17 11 50 26.000319   0  7G16G18G20G21G26G29G31
  21946206.220          27.550     -605104.731        2428.224
  23970249.607          30.583     -633454.397        2564.354
  23020143.151          36.888     -138872.648         486.246
  20965457.378          33.386       -5452.682         -48.277
  20674888.637          38.107     -283879.156        1096.143
  22560612.878          36.346      668001.027       -2740.001
  22191252.979          42.771      690068.751       -2863.365
 17 07 17 11 50 27.000318   0  7G16G18G20G21G26G29G31
  21945642.486          24.110     -607532.387        2427.534
  23969705.056          29.637     -636018.324        2563.771
  23019979.638          36.072     -139358.746         485.881
  20965395.198          32.403       -5403.416         -49.324
  20674610.603          38.524     -284974.922        1095.601
  22561069.035          36.548      670740.750       -2739.724
  22191728.925          43.386      692932.140       -2863.704
 17 07 17 11 50 28.000318   0  7G16G18G20G21G26G29G31
  21945178.406          23.667     -609959.751        2430.194
  23969211.598          28.864     -638582.130        2563.469
  23019881.607          36.997     -139844.193         485.173
  20965410.485          33.763       -5353.771         -49.760
  20674407.343          38.700     -286070.246        1095.219
  22561586.478          35.556      673480.650       -2739.619
  22192274.249          42.955      695795.883       -2863.852
 17 07 17 11 50 29.000318   0  7G16G18G20G21G26G29G31
  21944744.908          26.681     -612387.125        2427.142
  23968722.338          28.971     -641146.208        2563.890
  23019796.167          37.240     -140329.272         484.730
  20965419.480          33.735       -5303.662         -50.294
  20674200.187          38.626     -287165.358        1095.348
  22562109.914          35.787      676220.462       -2739.640
  22192813.574          42.717      698659.891       -2864.062
 17 07 17 11 50 30.000318   0  7G16G18G20G21G26G29G31
  21944208.454          30.402     -614814.256        2426.725
  23968175.090          30.545     -643710.091        2563.687
  23019623.959          36.404     -140813.779         484.510
  20965364.194          34.575       -5253.085         -50.735
  20673916.459          39.021     -288259.935        1094.508
  22562557.382          35.063      678960.400       -2739.926
  22193286.222          41.658      701524.158       -2864.157
 17 07 17 11 50 31.000318   0  7G16G18G20G21G26G29G31
  21943748.872          30.335     -617241.277        2426.862
  23967681.934          30.605     -646274.067        2563.898
  23019532.223          36.891     -141297.705         483.597
  20965369.891          35.251       -5202.110         -51.087
  20673710.503          38.751     -289354.198        1094.158
  22563088.313          33.616      681700.303       -2740.082
  22193835.742          42.162      704388.857       -2864.820
 17 07 17 11 50 32.000318   0  7G16G18G20G21G26G29G31
  21943211.819          29.661     -619667.902        2426.308
  23967118.497          30.887     -648837.990        2563.464
  23019378.304          35.660     -141781.095         482.964
  20965307.406          34.509       -5150.582         -51.972
  20673431.867          38.656     -290448.099        1093.524
  22563528.883          34.481      684440.316       -2740.124
  22194313.782          42.279      707253.787       -2865.342
 17 07 17 11 50 33.000318   0  7G16G18G20G21G26G29G31
  21942735.149          27.512     -622094.259        2425.733
  23966639.127          31.143     -651401.600        2563.647
  23019279.671          35.336     -142263.878         482.557
  20965310.704          33.949       -5098.448         -52.457
  20673222.311          39.567     -291541.415        1093.239
  22564055.915          34.504      687180.487       -2740.269
  22194855.507          42.027      710119.254       -2865.557
 17 07 17 11 50 34.000318   0  7G16G18G20G21G26G29G31
  21942265.075          25.859     -624520.413        2426.483
  23966144.173          31.140     -653965.217        2563.299
  23019187.935          35.770     -142745.891         481.677
  20965324.193          33.602       -5045.797         -52.520
  20673004.964          39.230     -292634.289        1092.841
  22564578.453          35.301      689920.875       -2739.881
  22195400.529          41.674      712985.183       -2866.123
 17 07 17 11 50 35.000318   0  7G16G18G20G21G26G29G31
  21941774.785          24.004     -626946.246        2425.248
  23965583.135          31.041     -656528.746        2563.388
  23019024.723          34.726     -143227.325         481.008
  20965267.109          33.839       -4992.585         -53.628
  20672723.034          38.573     -293726.656        1092.170
  22565025.318          34.292      692661.392       -2740.911
  22195871.681          41.103      715851.469       -2866.580
 17 07 17 11 50 36.000318   0  7G16G18G20G21G26G29G31
  21941303.511          24.263     -629371.854        2425.391
  23965110.060          30.096     -659092.062        2563.225
  23018934.785          34.922     -143708.209         480.271
  20965264.413          34.171       -4938.825         -54.225
  20672516.777          37.827     -294818.602        1091.704
  22565548.157          32.809      695401.995       -2740.749
  22196419.400          41.276      718718.110       -2866.877
 17 07 17 11 50 37.000318   0  7G16G18G20G21G26G29G31
  21940855.023          30.215     -631797.179        2425.144
  23964606.111          29.372     -661655.509        2563.689
  23018844.545          34.071     -144188.551         480.286
  20965292.290          35.069       -4884.632         -54.215
  20672305.425          36.478     -295910.248        1091.662
  22566070.996          34.159      698142.584       -2740.141
  22196963.825          40.460      721585.119       -2866.932
 17 07 17 11 50 38.000317   0  7G16G18G20G21G26G29G31
  21940323.368          30.216     -634222.298        2425.212
  23964044.175          28.920     -664218.739        2563.386
  23018674.741          35.306     -144668.236         479.577
  20965222.912          35.925       -4829.792         -54.847
  20672027.089          38.959     -297001.304        1091.170
  22566527.755          37.605      700883.528       -2740.740
  22197440.966          40.684      724452.513       -2867.620
 17 07 17 11 50 39.000317   0  7G16G18G20G21G26G29G31
  21939868.881          29.225     -636647.212        2424.506
  23963551.014          29.086     -666781.969        2563.213
  23018592.595          36.222     -145147.358         478.782
  20965236.707          35.724       -4774.579         -55.432
  20671824.728          39.788     -298092.071        1090.684
  22567048.492          37.306      703624.361       -2740.851
  22197978.795          40.377      727320.192       -2867.726
 17 07 17 11 50 40.000317   0  7G16G18G20G21G26G29G31
  21939403.602          29.912     -639072.061        2424.867
  23963068.350          29.133     -669345.249        2562.943
  23018494.564          35.586     -145626.079         478.535
  20965249.297          35.866       -4718.911         -55.999
  20671613.977          39.120     -299182.424        1089.982
  22567570.432          37.461      706365.287       -2741.175
  22198531.312          40.411      730188.253       -2868.419
 17 07 17 11 50 41.000317   0  7G16G18G20G21G26G29G31
  21938897.427          28.092     -641496.464        2424.307
  23962515.108          29.296     -671908.353        2563.170
  23018337.647          36.322     -146103.948         477.398
  20965181.119          35.552       -4662.604         -56.427
  20671335.345          38.993     -300272.233        1089.461
  22568015.797          36.659      709106.382       -2741.038
  22199007.856          41.101      733056.679       -2868.955
 17 07 17 11 50 42.000317   0  7G16G18G20G21G26G29G31
  21938432.750          27.592     -643920.534        2423.605
  23962025.546          30.682     -674471.237        2562.656
  23018236.619          35.810     -146581.165         476.517
  20965201.802          35.793       -4605.576         -57.665
  20671135.082          39.069     -301361.507        1089.038
  22568531.743          35.759      711847.685       -2741.716
  22199553.180          41.608      735925.670       -2869.331
 17 07 17 11 50 43.000317   0  7G16G18G20G21G26G29G31
  21937947.084          28.418     -646344.437        2423.976
  23961533.586          31.078     -677034.196        2563.218
  23018151.776          35.439     -147057.904         476.524
  20965201.505          35.674       -4548.204         -57.870
  20670925.527          37.847     -302450.422        1088.713
  22569061.475          36.388      714589.062       -2741.306
  22200096.104          41.574      738794.932       -2869.562
 17 07 17 11 50 44.000317   0  7G16G18G20G21G26G29G31
  21937429.520          28.110     -648768.064        2423.594
  23960985.740          32.307     -679596.939        2562.823
  23017991.561          34.596     -147533.932         475.621
  20965148.317          34.901       -4490.193         -58.287
  20670650.791          37.374     -303538.876        1088.654
  22569515.534          36.318      717330.534       -2741.455
  22200569.349          40.957      741664.681       -2869.937
 17 07 17 11 50 45.000317   0  7G16G18G20G21G26G29G31
  21936978.632          27.136     -651191.407        2423.081
  23960486.285          32.507     -682159.554        2562.659
  23017894.429          34.455     -148009.423         475.049
  20965162.107          36.070       -4431.674         -58.896
  20670445.432          37.153     -304626.764        1087.542
  22570023.383          34.140      720072.236       -2741.650
  22201118.569          41.256      744534.764       -2870.242
 17 07 17 11 50 46.000317   0  7G16G18G20G21G26G29G31
  21936520.847          25.956     -653614.423        2422.839
  23960004.519          33.857     -684722.027        2562.494
  23017813.486          34.999     -148484.104         474.139
  20965167.504          35.743       -4372.495         -59.628
  20670238.878          38.207     -305714.187        1087.032
  22570548.622          35.184      722814.065       -2742.007
  22201662.396          41.222      747405.415       -2870.991
 17 07 17 11 50 47.000316   0  7G16G18G20G21G26G29G31
  21935876.341          25.492     -656037.017        2422.465
  23959383.396          35.371     -687284.222        2562.137
  23017582.092          34.957     -148958.120         473.484
  20965035.043          35.008       -4312.670         -60.082
  20669886.968          38.321     -306801.044        1086.475
  22570930.903          37.592      725556.253       -2742.277
  22202070.762          41.106      750276.567       -2871.413
 17 07 17 11 50 48.000316   0  7G16G18G20G21G26G29G31
  21935411.664          25.430     -658459.288        2422.226
  23958904.928          33.485     -689846.300        2561.813
  23017486.460          34.567     -149431.352         472.842
  20965047.333          35.410       -4252.212         -60.840
  20669679.812          37.983     -307887.254        1085.884
  22571454.044          35.452      728298.667       -2742.382
  22202615.483          41.286      753148.211       -2872.028
 17 07 17 11 50 49.000316   0  7G16G18G20G21G26G29G31
  21934865.018          26.888     -660881.142        2421.755
  23958330.101          32.303     -692408.158        2561.398
  23017333.439          34.678     -149904.030         472.486
  20964983.652          35.256       -4191.077         -61.442
  20669397.280          36.900     -308972.974        1085.461
  22571904.503          35.945      731041.230       -2742.577
  22203097.423          41.382      756020.299       -2872.289
 17 07 17 11 50 50.000316   0  7G16G18G20G21G26G29G31
  21934415.330          27.445     -663302.715        2421.431
  23957838.742          33.542     -694969.802        2561.631
  23017241.402          35.425     -150375.830         471.681
  20964999.240          35.280       -4129.271         -62.100
  20669186.530          37.998     -310058.087        1084.888
  22572425.244          36.024      733784.000       -2742.804
  22203638.249          42.208      758892.863       -2872.721
 17 07 17 11 50 51.000316   0  7G16G18G20G21G26G29G31
  21933939.258          25.612     -665723.925        2421.327
  23957356.976          34.433     -697531.351        2561.691
  23017151.765          36.084     -150847.024         471.020
  20965005.836          35.333       -4066.982         -62.477
  20668979.073          37.754     -311142.748        1084.614
  22572947.180          38.436      736527.023       -2742.947
  22204179.376          42.782      761765.952       -2873.262
 17 07 17 11 50 52.000316   0  7G16G18G20G21G26G29G31
  21933403.104          25.210     -668144.616        2420.465
  23956794.739          33.307     -700092.660        2561.510
  23016989.753          36.489     -151317.560         470.263
  20964947.552          34.594       -4003.976         -63.091
  20668703.137          38.102     -312226.814        1084.125
  22573397.644          37.433      739270.195       -2743.006
  22204660.714          43.096      764639.501       -2873.434
 17 07 17 11 50 53.000316   0  7G16G18G20G21G26G29G31
  21932975.901          29.345     -670565.294        2420.319
  23956317.471          32.715     -702653.882        2561.047
  23016890.819          37.183     -151787.422         469.214
  20964956.844          34.967       -3940.485         -63.848
  20668495.981          38.539     -313310.420        1082.873
  22573916.583          38.476      742013.526       -2743.335
  22205207.539          43.092      767513.445       -2874.304
 17 07 17 11 50 54.000316   0  7G16G18G20G21G26G29G31
  21932512.419          30.964     -672985.502        2419.748
  23955817.413          31.645     -705214.933        2560.898
  23016811.076          36.769     -152256.402         468.507
  20964971.834          35.329       -3876.212         -64.502
  20668293.323          38.727     -314393.472        1082.759
  22574444.221          38.605      744757.241       -2743.869
  22205750.463          42.956      770387.960       -2874.800
 17 07 17 11 50 55.000316   0  7G16G18G20G21G26G29G31
  21931975.668          33.193     -675405.225        2419.568
  23955259.975          32.999     -707775.652        2561.017
  23016640.967          36.835     -152724.767         468.061
  20964918.345          35.714       -3811.233         -65.234
  20668012.889          38.357     -315475.868        1081.964
  22574894.385          38.293      747501.154       -2743.927
  22206231.203          41.179      773263.000       -2875.345
 17 07 17 11 50 56.000316   0  7G16G18G20G21G26G29G31
  21931524.178          34.525     -677824.653        2419.302
  23954775.212          33.533     -710336.124        2560.625
  23016554.627          36.564     -153192.379         466.892
  20964930.639          34.951       -3745.688         -65.993
  20667809.629          37.916     -316557.706        1081.376
  22575422.319          38.431      750245.281       -2744.289
  22206775.628          40.535      776138.533       -2875.767
 17 07 17 11 50 57.000316   0  7G16G18G20G21G26G29G31
  21931055.902          32.009     -680243.569        2418.906
  23954291.348          32.429     -712896.316        2560.487
  23016456.596          35.206     -153659.182         466.491
  20964934.233          34.643       -3679.380         -66.296
  20667603.075          39.014     -317638.851        1080.993
  22575934.662          36.785      752989.741       -2744.506
  22207318.849          42.138      779014.655       -2876.075
 17 07 17 11 50 58.000315   0  7G16G18G20G21G26G29G31
  21930542.233          30.261     -682662.261        2418.681
  23953720.717          32.498     -715456.470        2560.164
  23016305.076          35.250     -154125.385         466.107
  20964883.746          35.656       -3612.661         -66.871
  20667329.835          38.427     -318719.699        1080.756
  22576391.421          39.106      755734.270       -2744.535
  22207796.894          42.262      781891.169       -2876.496
 17 07 17 11 50 59.000315   0  7G16G18G20G21G26G29G31
  21930079.654          29.257     -685080.797        2418.469
  23953240.147          31.710     -718016.671        2559.917
  23016219.334          35.609     -154591.142         465.679
  20964889.142          36.260       -3545.313         -67.572
  20667128.377          38.096     -319800.061        1080.031
  22576910.064          39.043      758478.931       -2744.706
  22208345.214          42.354      784767.976       -2877.024
 17 07 17 11 51 00.000315   0  7G16G18G20G21G26G29G31
  21929614.675          29.816     -687498.987        2417.682
  23952741.895          30.955     -720576.630        2560.071
  23016122.503          35.303     -155056.168         464.998
  20964907.129          36.089       -3477.502         -68.130
  20666921.518          36.824     -320879.988        1079.897
  22577439.795          37.087      761223.640       -2744.800
  22208894.133          42.681      787645.246       -2877.300
 17 07 17 11 51 01.000315   0  7G16G18G20G21G26G29G31
  21929090.514          29.985     -689916.898        2417.445
  23952177.856          29.845     -723136.512        2559.622
  23015969.181          32.805     -155520.462         463.909
  20964842.847          36.086       -3409.047         -68.485
  20666646.184          38.005     -321959.227        1078.776
  22577887.559          36.872      763968.650       -2744.972
  22209366.480          42.142      790523.012       -2878.192
 17 07 17 11 51 02.000315   0  7G16G18G20G21G26G29G31
  21928626.434          28.930     -692334.502        2417.902
  23951688.299          29.460     -725696.241        2559.486
  23015883.143          33.653     -155984.131         463.383
  20964851.541          34.508       -3339.927         -69.627
  20666446.222          37.922     -323038.139        1078.728
  22578411.895          35.522      766713.747       -2744.900
  22209917.501          42.801      793401.174       -2878.409
 17 07 17 11 51 03.000315   0  7G16G18G20G21G26G29G31
  21928087.580          29.171     -694751.827        2417.002
  23951134.455          29.579     -728255.937        2559.671
  23015709.736          33.440     -156447.213         462.374
  20964800.752          34.357       -3270.401         -70.008
  20666160.095          37.501     -324116.574        1078.151
  22578856.963          37.435      769459.117       -2745.776
  22210393.447          42.041      796279.625       -2878.801
 17 07 17 11 51 04.000315   0  7G16G18G20G21G26G29G31
  21927617.506          25.266     -697170.216        2422.858
  23950661.982          30.819     -730815.370        2559.671
  23015635.389          33.837     -156909.741         462.240
  20964811.244          35.215       -3200.207         -70.367
  20665956.237          36.532     -325194.471        1077.685
  22579388.195          38.558      772204.534       -2745.609
  22210942.365          42.556      799158.590       -2879.080
 17 07 17 11 51 05.000315   0  7G16G18G20G21G26G29G31
  21927192.703          21.985     -699590.213        2415.514
  23950172.120          30.626     -733374.637        2559.099
  23015544.849          33.163     -157371.455         461.272
  20964827.730          35.589       -3129.417         -71.180
  20665754.774          37.495     -326271.848        1077.154
  22579911.632          37.015      774950.128       -2745.811
  22211490.686          42.299      802038.001       -2879.784
 17 07 17 11 51 06.000315   0  7G16G18G20G21G26G29G31
  21926635.260          18.720     -702006.969        2415.209
  23949608.085          31.752     -735933.872        2559.335
  23015381.938          32.912     -157832.518         461.286
  20964772.444          36.944       -3058.072         -71.402
  20665469.847          37.129     -327348.755        1076.917
  22580362.694          37.412      777695.949       -2745.511
  22211963.334          42.537      804917.900       -2880.117
 17 07 17 11 51 07.000315   0  7G16G18G20G21G26G29G31
  21926164.287          26.020     -704423.114        2415.941
  23949137.112          31.751     -738492.926        2558.914
  23015301.593          34.504     -158293.077         460.618
  20964788.934          37.261       -2986.158         -71.947
  20665266.290          37.779     -328425.205        1076.086
  22580876.241          39.845      780441.808       -2745.758
  22212514.050          41.971      807798.093       -2880.372
 17 07 17 11 51 08.000315   0  7G16G18G20G21G26G29G31
  21925696.613          25.630     -706838.858        2415.839
  23948637.657          32.110     -741051.963        2558.958
  23015218.551          34.543     -158752.930         459.732
  20964803.924          36.819       -2913.690         -72.405
  20665065.430          38.320     -329501.163        1075.760
  22581413.467          38.897      783187.886       -2746.180
  22213065.668          42.739      810678.728       -2880.848
 17 07 17 11 51 09.000314   0  7G16G18G20G21G26G29G31
  21925202.427          29.356     -709254.545        2415.636
  23948073.024          31.075     -743610.823        2558.965
  23015056.836          33.997     -159212.220         458.920
  20964742.940          37.741       -2840.754         -73.201
  20664783.796          38.663     -330576.663        1075.355
  22581852.537          37.781      785934.149       -2746.482
  22213544.014          41.560      813559.792       -2881.223
 17 07 17 11 51 10.000314   0  7G16G18G20G21G26G29G31
  21924723.357          30.020     -711669.759        2414.402
  23947593.955          32.698     -746169.524        2558.821
  23014971.099          35.514     -159670.768         458.182
  20964757.929          38.476       -2767.107         -74.110
  20664579.637          37.828     -331651.567        1074.180
  22582381.671          38.452      788680.498       -2746.590
  22214090.236          40.820      816441.418       -2881.846
 17 07 17 11 51 11.000314   0  7G16G18G20G21G26G29G31
  21924286.561          28.304     -714084.667        2414.772
  23947095.402          32.261     -748728.062        2558.216
  23014886.557          35.151     -160128.670         457.912
  20964777.417          37.988       -2692.981         -74.377
  20664377.878          37.977     -332726.085        1074.054
  22582894.917          38.143      791427.019       -2746.258
  22214639.155          41.966      819323.339       -2882.348
 17 07 17 11 51 12.000314   0  7G16G18G20G21G26G29G31
  21923782.485          26.600     -716499.299        2415.137
  23946534.962          31.708     -751286.627        2558.364
  23014718.546          33.991     -160585.959         456.950
  20964711.935          36.079       -2618.193         -75.167
  20664102.544          36.546     -333800.080        1074.022
  22583354.673          37.386      794173.721       -2746.610
  22215112.400          43.040      822205.647       -2882.483
 17 07 17 11 51 13.000314   0  7G16G18G20G21G26G29G31
  21923322.004          24.227     -718913.835        2414.166
  23946059.191          32.149     -753845.040        2558.113
  23014643.597          34.475     -161042.652         456.250
  20964727.527          36.012       -2543.010         -75.683
  20663903.782          36.108     -334873.728        1073.049
  22583878.712          38.744      796920.473       -2747.009
  22215662.523          43.372      825088.270       -2883.100
 17 07 17 11 51 14.000314   0  7G16G18G20G21G26G29G31
  21922872.317          22.887     -721327.873        2415.383
  23945574.127          31.212     -756403.361        2558.380
  23014546.164          34.756     -161498.727         455.664
  20964751.508          35.715       -2467.262         -75.943
  20663694.824          35.305     -335946.852        1072.930
  22584403.946          40.004      799667.332       -2746.868
  22216208.444          43.484      827971.384       -2883.400
 17 07 17 11 51 15.000314   0  7G16G18G20G21G26G29G31
  21922315.175          25.559     -723742.029        2414.053
  23945016.387          31.076     -758961.716        2558.663
  23014386.250          34.205     -161954.397         455.566
  20964683.927          34.609       -2391.086         -76.187
  20663419.490          36.864     -337019.655        1072.988
  22584846.013          38.683      802414.221       -2746.679
  22216690.384          44.004      830854.722       -2883.242
 17 07 17 11 51 16.000314   0  7G16G18G20G21G26G29G31
  21921837.305          24.734     -726155.870        2413.585
  23944533.121          31.552     -761519.929        2557.933
  23014301.708          35.053     -162409.457         454.843
  20964702.516          34.769       -2314.369         -76.678
  20663217.731          36.191     -338092.046        1072.131
  22585372.451          38.797      805161.159       -2746.468
  22217238.705          43.507      833738.443       -2883.944
 17 07 17 11 51 17.000314   0  7G16G18G20G21G26G29G31
  21921288.561          25.248     -728569.260        2412.698
  23943974.784          31.552     -764078.212        2558.470
  23014135.796          33.683     -162863.863         454.170
  20964646.331          33.719       -2237.117         -77.491
  20662940.298          36.283     -339163.960        1071.516
  22585816.319          39.556      807908.370       -2747.290
  22217714.049          42.844      836622.587       -2884.333
 17 07 17 11 51 18.000314   0  7G16G18G20G21G26G29G31
  21920851.163          26.410     -730982.359        2412.952
  23943492.416          31.177     -766636.264        2557.688
  23014052.454          34.688     -163317.618         453.152
  20964655.924          35.500       -2159.324         -78.078
  20662731.943          38.122     -340235.359        1071.015
  22586346.949          39.073      810655.578       -2747.397
  22218256.973          40.969      839507.096       -2884.536
 17 07 17 11 51 19.000314   0  7G16G18G20G21G26G29G31
  21920396.977          26.886     -733395.301        2412.080
  23942993.863          31.964     -769194.254        2557.608
  23013963.117          33.141     -163770.853         453.419
  20964668.816          34.749       -2081.096         -78.254
  20662531.379          36.569     -341306.385        1070.533
  22586863.192          38.644      813402.974       -2747.465
  22218813.988          41.153      842391.980       -2885.009
 17 07 17 11 51 20.000314   0  7G16G18G20G21G26G29G31
  21919872.214          23.510     -735808.212        2415.630
  23942433.424          31.846     -771752.078        2557.629
  23013805.302          32.940     -164223.319         451.896
  20964609.031          34.151       -2002.108         -79.677
  20662248.550          36.326     -342376.877        1070.160
  22587311.855          38.342      816150.510       -2747.510
  22219285.135          41.581      845277.324       -2885.583
 17 07 17 11 51 21.000314   0  7G16G18G20G21G26G29G31
  21919423.726          24.893     -738220.676        2412.363
  23941959.153          31.956     -774309.835        2557.632
  23013716.262          33.374     -164675.186         451.329
  20964636.912          33.111       -1922.558         -79.641
  20662044.692          35.936     -343446.903        1069.922
  22587832.896          37.490      818898.238       -2747.911
  22219838.255          41.615      848163.193       -2885.917
 17 07 17 11 51 22.000314   0  7G16G18G20G21G26G29G31
  21918913.778          26.001     -740632.824        2412.273
  23941471.092          31.310     -776867.439        2557.669
  23013630.520          32.854     -165126.400         451.112
  20964643.805          33.722       -1842.611         -80.423
  20661842.933          38.473     -344516.385        1069.438
  22588357.533          36.658      821646.086       -2747.826
  22220384.176          41.854      851049.265       -2886.219
 17 07 17 11 51 23.000313   0  7G16G18G20G21G26G29G31
  21918324.738          26.197     -743044.804        2412.165
  23940829.286          31.063     -779424.868        2557.288
  23013412.624          31.411     -165576.942         450.407
  20964513.147          34.940       -1761.950         -80.884
  20661497.318          38.157     -345585.513        1068.917
  22588733.223          34.757      824394.060       -2748.483
  22220789.545          42.282      853935.814       -2886.585
 17 07 17 11 51 24.000313   0  7G16G18G20G21G26G29G31
  21917878.645          27.708     -745456.355        2411.328
  23940349.017          30.180     -781982.153        2557.316
  23013329.879          32.624     -166026.872         449.563
  20964533.533          36.640       -1680.788         -81.289
  20661293.460          37.187     -346654.052        1068.386
  22589274.049          32.354      827142.335       -2748.308
  22221336.666          41.123      856822.921       -2887.292
 17 07 17 11 51 25.000313   0  7G16G18G20G21G26G29G31
  21917409.168          25.031     -747867.694        2410.786
  23939842.969          29.506     -784539.417        2557.457
  23013232.446          34.179     -166476.308         449.346
  20964549.120          36.817       -1599.135         -81.895
  20661095.597          36.674     -347722.157        1068.103
  22589789.389          35.905      829890.585       -2748.290
  22221889.183          41.950      859710.234       -2887.376
 17 07 17 11 51 26.000313   0  7G16G18G20G21G26G29G31
  21916858.924          23.369     -750278.833        2411.723
  23939300.219          31.093     -787096.576        2557.040
  23013083.923          34.558     -166925.029         449.125
  20964492.935          36.731       -1516.862         -82.762
  20660816.965          36.383     -348789.791        1067.473
  22590244.050          38.840      832638.893       -2748.625
  22222364.226          41.799      862597.998       -2888.019
 17 07 17 11 51 27.000313   0  7G16G18G20G21G26G29G31
  21916400.541          26.365     -752689.695        2410.120
  23938809.759          30.695     -789653.596        2556.354
  23013001.183          32.454     -167372.917         448.204
  20964515.118          36.784       -1433.892         -83.170
  20660616.405          38.418     -349856.768        1066.652
  22590767.185          38.474      835387.600       -2748.936
  22222917.944          42.996      865486.247       -2888.552
 17 07 17 11 51 28.000313   0  7G16G18G20G21G26G29G31
  21915932.265          23.637     -755100.338        2411.234
  23938318.697          30.309     -792210.247        2555.593
  23012917.238          33.344     -167820.234         447.004
  20964531.007          36.839       -1350.443         -83.822
  20660420.941          37.452     -350923.375        1066.548
  22591290.025          37.860      838136.286       -2748.580
  22223466.565          42.479      868374.974       -2888.787
 17 07 17 11 51 29.000313   0  7G16G18G20G21G26G29G31
  21915432.988          26.416     -757510.466        2410.443
  23937766.354          30.748     -794767.049        2556.491
  23012753.726          35.400     -168267.084         446.839
  20964479.917          35.449       -1266.485         -84.347
  20660147.103          39.651     -351989.491        1066.016
  22591735.393          37.984      840885.135       -2748.724
  22223945.809          43.562      871264.032       -2889.121
 17 07 17 11 51 30.000313   0  7G16G18G20G21G26G29G31
  21914965.911          27.528     -759920.257        2409.574
  23937273.796          29.494     -797323.814        2557.058
  23012673.681          36.238     -168713.190         445.896
  20964490.409          35.585       -1181.972         -84.856
  20659944.445          39.228     -353055.214        1065.646
  22592254.930          37.584      843634.142       -2749.131
  22224495.029          43.264      874153.526       -2889.789
 17 07 17 11 51 31.000312   0  7G16G18G20G21G26G29G31
  21914457.935          25.672     -762329.924        2409.328
  23936713.657          28.396     -799880.184        2555.983
  23012518.562          36.728     -169158.699         445.019
  20964428.229          34.722       -1096.800         -85.499
  20659669.709          38.347     -354120.365        1064.938
  22592707.493          37.827      846383.245       -2749.119
  22224969.771          42.818      877043.383       -2890.075
 17 07 17 11 51 32.000312   0  7G16G18G20G21G26G29G31
  21914007.349          25.345     -764739.240        2409.222
  23936248.979          29.971     -802436.605        2556.105
  23012433.723          37.139     -169603.586         444.703
  20964447.713          35.190       -1011.247         -85.959
  20659466.750          38.091     -355185.160        1064.715
  22593235.126          38.182      849132.555       -2749.194
  22225521.691          42.044      879933.633       -2890.490
 17 07 17 11 51 33.000312   0  7G16G18G20G21G26G29G31
  21913564.855          23.168     -767148.684        2412.495
  23935748.027          28.285     -804993.061        2556.494
  23012344.086          35.903     -170047.969         444.031
  20964463.601          34.626        -925.149         -85.994
  20659262.290          38.362     -356249.474        1064.258
  22593756.469          38.116      851881.925       -2749.328
  22226072.707          42.030      882824.231       -2890.657
 17 07 17 11 51 34.000312   0  7G16G18G20G21G26G29G31
  21913033.195          20.429     -769556.474        2403.691
  23935188.189          29.861     -807549.240        2556.049
  23012192.862          36.297     -170491.562         443.367
  20964404.419          35.802        -838.380         -86.890
  20658983.954          37.765     -357313.172        1063.163
  22594210.227          38.182      854631.630       -2749.888
  22226550.154          43.500      885715.429       -2891.688
 17 07 17 11 51 35.000312   0  7G16G18G20G21G26G29G31
  21912580.209          19.611     -771956.227        2404.943
  23934699.827          33.978     -810105.231        2556.172
  23012110.419          35.476     -170934.382         442.431
  20964429.900          34.783        -750.884         -87.540
  20658779.499          37.482     -358376.435        1062.797
  22594729.170          38.992      857381.487       -2749.771
  22227098.475          42.952      888607.035       -2891.811
 17 07 17 11 51 36.000312   0  7G16G18G20G21G26G29G31
  21912108.935          21.240     -774363.465        2406.074
  23934227.053          33.593     -812661.033        2555.691
  23012027.077          36.038     -171376.652         441.844
  20964437.094          35.982        -662.876         -88.556
  20658575.938          36.607     -359439.133        1062.749
  22595260.699          37.845      860131.486       -2750.446
  22227651.289          42.427      891499.004       -2892.208
 17 07 17 11 51 37.000312   0  7G16G18G20G21G26G29G31
  21911558.093          21.876     -776773.324        2405.394
  23933660.021          33.012     -815216.716        2555.707
  23011872.860          36.653     -171818.226         441.452
  20964383.609          35.037        -574.287         -88.712
  20658303.902          37.292     -360501.321        1062.239
  22595704.869          38.206      862881.635       -2750.150
  22228135.332          43.618      894391.522       -2892.684
 17 07 17 11 51 38.000312   0  7G16G18G20G21G26G29G31
  21911107.502          19.666     -779180.633        2407.199
  23933175.856          32.527     -817772.223        2555.350
  23011785.020          35.947     -172259.053         440.293
  20964404.894          35.660        -485.019         -89.924
  20658099.442          38.384     -361562.971        1061.114
  22596227.703          37.515      865631.976       -2750.695
  22228683.051          43.820      897284.434       -2893.250
 17 07 17 11 51 39.000312   0  7G16G18G20G21G26G29G31
  21910664.410          19.580     -781587.863        2407.400
  23932686.295          33.556     -820327.468        2555.012
  23011700.478          33.308     -172699.133         439.583
  20964418.383          35.228        -395.119         -90.442
  20657898.285          38.593     -362624.035        1060.656
  22596755.040          36.474      868382.687       -2750.930
  22229234.072          43.495      900177.880       -2893.776
 17 07 17 11 51 40.000312   0  7G16G18G20G21G26G29G31
  21910097.379          19.806     -783994.345        2406.885
  23932127.657          34.614     -822882.701        2555.216
  23011554.054          32.693     -173138.781         438.841
  20964363.397          35.397        -304.806         -90.472
  20657630.145          38.275     -363684.664        1060.430
  22597209.701          38.777      871133.390       -2750.679
  22229716.012          43.699      903071.776       -2894.028
 17 07 17 11 51 41.000312   0  7G16G18G20G21G26G29G31
  21909642.294          23.430     -786401.200        2406.638
  23931648.888          34.734     -825437.828        2555.109
  23011468.914          32.304     -173577.580         438.516
  20964386.179          35.716        -213.841         -90.856
  20657425.685          38.313     -364744.840        1060.084
  22597735.834          38.678      873884.165       -2750.481
  22230261.632          43.708      905965.977       -2894.182
 17 07 17 11 51 42.000312   0  7G16G18G20G21G26G29G31
  21909186.011          25.525     -788807.486        2405.893
  23931168.021          33.681     -827992.771        2554.865
  23011387.670          33.200     -174015.965         437.869
  20964404.166          35.546        -122.412         -91.814
  20657224.222          38.545     -365804.579        1059.562
  22598247.880          37.395      876635.138       -2751.459
  22230817.147          43.411      908860.554       -2894.688
 17 07 17 11 51 43.000311   0  7G16G18G20G21G26G29G31
  21908639.060          22.376     -791214.539        2407.241
  23930611.180          33.702     -830547.695        2554.889
  23011233.153          32.829     -174453.691         437.382
  20964345.882          35.575         -30.409         -92.184
  20656953.386          38.701     -366863.796        1058.830
  22598693.847          32.545      879386.238       -2750.596
  22231295.492          43.207      911755.537       -2895.258
 17 07 17 11 51 44.000311   0  7G16G18G20G21G26G29G31
  21908190.873          22.670     -793627.480        2404.869
  23930112.025          33.633     -833102.336        2554.716
  23011140.514          32.809     -174890.656         436.826
  20964363.572          35.948          62.352         -92.991
  20656752.224          39.562     -367922.398        1058.593
  22599225.380          33.992      882137.632       -2751.435
  22231847.709          44.112      914651.096       -2895.592
 17 07 17 11 51 45.000311   0  7G16G18G20G21G26G29G31
  21907655.317          25.151     -796032.712        2404.767
  23929566.575          34.632     -835656.754        2554.561
  23010985.997          32.516     -175326.949         436.549
  20964319.074          35.422         155.665         -93.234
  20656475.093          39.408     -368980.439        1058.001
  22599675.543          37.161      884889.236       -2751.597
  22232326.953          43.562      917547.079       -2896.058
 17 07 17 11 51 46.000311   0  7G16G18G20G21G26G29G31
  21907205.328          25.443     -798437.748        2404.461
  23929082.114          33.938     -838211.177        2554.242
  23010909.848          32.415     -175762.590         435.332
  20964323.271          35.608         249.523         -94.111
  20656279.925          39.116     -370038.174        1057.359
  22600201.380          37.881      887640.938       -2751.902
  22232874.074          42.618      920443.449       -2896.659
 17 07 17 11 51 47.000311   0  7G16G18G20G21G26G29G31
  21906739.150          25.730     -800842.383        2404.317
  23928598.250          33.030     -840765.258        2554.035
  23010825.010          32.142     -176197.486         434.339
  20964349.655          35.463         344.070         -94.938
  20656073.071          40.329     -371095.228        1056.620
  22600727.512          39.191      890392.902       -2752.148
  22233429.287          42.285      923340.333       -2897.320
 17 07 17 11 51 48.000311   0  7G16G18G20G21G26G29G31
  21906213.488          27.028     -803246.671        2404.485
  23928041.705          33.113     -843319.236        2554.181
  23010667.194          31.417     -176631.622         433.797
  20964291.668          35.812         439.205         -95.326
  20655807.330          41.514     -372151.753        1056.402
  22601181.571          38.134      893145.042       -2752.123
  22233907.332          42.386      926237.712       -2897.469
 17 07 17 11 51 49.000311   0  7G16G18G20G21G26G29G31
  21905751.210          26.197     -805650.717        2404.089
  23927553.946          31.692     -845873.147        2553.913
  23010588.646          31.609     -177065.232         433.219
  20964313.555          35.897         534.867         -96.059
  20655601.971          41.795     -373207.821        1055.939
  22601701.714          37.419      895897.280       -2752.241
  22234459.849          42.229      929135.371       -2897.539
 17 07 17 11 51 50.000311   0  7G16G18G20G21G26G29G31
  21905296.126          25.756     -808054.759        2404.283
  23927059.585          31.153     -848427.193        2553.738
  23010499.908          33.144     -177498.512         433.288
  20964325.247          35.402         630.816         -96.003
  20655407.105          41.183     -374263.688        1055.641
  22602225.452          38.841      898649.496       -2752.244
  22235010.866          42.692      932033.252       -2897.989
 17 07 17 11 51 51.000311   0  7G16G18G20G21G26G29G31
  21904769.862          26.037     -810458.252        2403.318
  23926513.538          30.660     -850980.934        2553.420
  23010342.991          32.066     -177930.979         432.609
  20964281.050          35.093         727.515         -96.979
  20655131.169          40.536     -375318.929        1055.139
  22602681.610          38.216      901401.836       -2752.170
  22235492.509          43.579      934931.671       -2898.448
 17 07 17 11 51 52.000311   0  7G16G18G20G21G26G29G31
  21904328.869          26.677     -812861.626        2403.456
  23926020.381          30.040     -853534.695        2554.034
  23010259.950          31.900     -178362.804         431.955
  20964289.443          35.532         824.660         -97.211
  20654927.311          40.410     -376373.743        1054.841
  22603201.748          38.823      904154.404       -2752.512
  22236046.227          43.197      937830.484       -2898.814
 17 07 17 11 51 53.000311   0  7G16G18G20G21G26G29G31
  21903870.788          25.806     -815264.868        2403.758
  23925533.516          29.030     -856088.241        2553.653
  23010181.402          31.789     -178794.152         431.194
  20964313.429          35.814         922.252         -97.839
  20654727.048          39.718     -377428.131        1054.255
  22603726.987          38.976      906907.022       -2752.583
  22236591.550          43.065      940729.628       -2899.351
 17 07 17 11 51 54.000310   0  7G16G18G20G21G26G29G31
  21903385.894          22.457     -817667.221        2399.774
  23924981.775          30.508     -858641.640        2553.558
  23010032.281          33.215     -179224.622         430.050
  20964253.042          34.620        1020.608         -98.379
  20654457.412          40.089     -378481.919        1053.533
  22604194.836          35.690      909659.908       -2752.964
  22237073.490          43.692      943629.349       -2900.022
 17 07 17 11 51 55.000310   0  7G16G18G20G21G26G29G31
  21902888.842          22.079     -820069.466        2399.855
  23924488.318          31.008     -861194.774        2553.387
  23009946.841          33.382     -179654.401         429.590
  20964274.332          33.458        1119.667         -99.165
  20654255.351          39.703     -379535.094        1053.041
  22604711.977          35.891      912413.116       -2753.233
  22237622.409          43.644      946529.505       -2900.275
 17 07 17 11 51 56.000310   0  7G16G18G20G21G26G29G31
  21902355.084          23.613     -822471.357        2405.276
  23923930.578          30.078     -863747.879        2552.981
  23009801.615          32.064     -180083.559         428.480
  20964219.041          33.137        1219.209        -100.152
  20653982.713          39.890     -380587.836        1052.482
  22605158.842          37.943      915166.365       -2753.587
  22238110.347          44.097      949430.079       -2900.746
 17 07 17 11 51 57.000310   0  7G16G18G20G21G26G29G31
  21901960.556          21.290     -824873.747        2406.948
  23923436.519          29.158     -866300.894        2553.227
  23009704.780          32.020     -180512.124         428.257
  20964245.722          33.978        1319.265        -100.662
  20653784.553          40.424     -381640.131        1051.962
  22605681.381          38.224      917919.700       -2753.313
  22238661.364          43.648      952330.990       -2901.170
 17 07 17 11 51 58.000310   0  7G16G18G20G21G26G29G31
  21901491.381          18.595     -827275.443        2404.907
  23922952.354          29.933     -868853.740        2552.994
  23009639.429          32.095     -180940.181         427.580
  20964269.110          32.263        1419.785        -100.578
  20653583.989          40.516     -382692.014        1051.961
  22606209.616          36.650      920673.115       -2753.493
  22239212.084          43.523      955232.342       -2901.387
 17 07 17 11 51 59.000310   0  7G16G18G20G21G26G29G31
  21900935.142          21.010     -829676.700        2404.066
  23922403.008          30.682     -871406.376        2552.574
  23009481.609          30.059     -181367.506         427.343
  20964219.215          32.018        1521.053        -101.487
  20653311.054          39.214     -383743.356        1051.256
  22606651.386          36.374      923426.812       -2753.770
  22239697.022          44.123      958134.102       -2901.750
 17 07 17 11 52 00.000310   0  7G16G18G20G21G26G29G31
  21900438.984          25.414     -832077.534        2401.282
  23921915.846          29.794     -873958.988        2552.488
  23009385.375          29.962     -181794.207         426.518
  20964231.208          31.827        1622.749        -101.863
  20653113.788          39.741     -384794.242        1050.441
  22607186.213          37.308      926180.575       -2754.052
  22240249.238          44.469      961036.162       -2902.267
 17 07 17 11 52 01.000310   0  8G05G16G18G20G21G26G29G31
  24990975.751          25.194       16833.123       -1684.834
  21899967.410          24.724     -834478.176        2400.078
  23921440.375          29.545     -876511.636        2553.078
  23009314.925          30.830     -182220.339         425.806
  20964246.799          31.668        1724.985        -102.061
  20652910.232          40.039     -385844.742        1050.464
  22607707.551          34.832      928934.442       -2753.943
  22240799.657          44.453      963938.696       -2902.437
 17 07 17 11 52 02.000309   0  8G05G16G18G20G21G26G29G31
  24991168.266          24.082       18519.073       -1686.436
  21899372.671          25.294     -836878.735        2400.303
  23920792.571          28.945     -879064.103        2553.018
  23009083.234          30.959     -182645.908         425.153
  20964136.824          31.243        1827.720        -102.630
  20652570.014          39.925     -386894.715        1050.075
  22608080.546          32.908      931688.336       -2753.780
  22241208.324          44.122      966841.580       -2903.178
 17 07 17 11 52 03.000309   0  8G05G16G18G20G21G26G29G31
  24991449.472          20.897       20203.822       -1687.367
  21898916.086          28.708     -839278.962        2400.742
  23920318.601          29.298     -881616.405        2552.071
  23009020.579          29.511     -183070.716         425.234
  20964146.714          32.866        1931.097        -103.382
  20652369.153          41.227     -387944.291        1049.573
  22608606.382          35.309      934442.484       -2753.711
  22241757.242          42.443      969744.851       -2903.437
 17 07 17 11 52 04.000309   0  8G05G16G18G20G21G26G29G31
  24991780.145          20.619       21884.212       -1686.794
  21898471.795          28.520     -841679.142        2401.589
  23919835.335          28.232     -884168.704        2551.254
  23008926.744          29.433     -183495.166         424.308
  20964175.197          33.958        2034.831        -104.311
  20652173.990          41.623     -388993.437        1049.066
  22609129.818          37.031      937196.568       -2753.731
  22242313.359          42.549      972648.372       -2903.340
 17 07 17 11 52 05.000309   0  8G05G16G18G20G21G26G29G31
  24992058.825          23.072       23571.464       -1687.314
  21897920.953          27.486     -844078.785        2399.227
  23919308.775          25.893     -886720.932        2551.798
  23008753.939          27.351     -183918.985         423.685
  20964118.711          32.534        2139.105        -104.953
  20651897.757          40.084     -390042.225        1048.175
  22609585.976          35.913      939950.758       -2754.404
  22242795.299          43.371      975552.238       -2904.178
 17 07 17 11 52 06.000309   0  8G05G16G18G20G21G26G29G31
  24992361.913          23.728       25259.518       -1688.139
  21897489.252          22.504     -846480.450        2403.449
  23918793.129          27.117     -889273.243        2552.102
  23008696.676          26.811     -184342.189         423.069
  20964136.095          32.267        2243.807        -104.862
  20651701.992          41.058     -391090.541        1048.014
  22610111.214          36.043      942705.088       -2754.288
  22243340.924          42.688      978456.590       -2904.619
 17 07 17 11 52 07.000309   0  8G05G16G18G20G21G26G29G31
  24992622.606          24.244       26947.953       -1688.589
  21897030.141          21.247     -848883.348        2406.850
  23918233.893          27.747     -891825.327        2552.096
  23008553.550          23.848     -184764.681         421.657
  20964082.309          32.619        2349.094        -105.341
  20651428.154          40.865     -392138.374        1047.786
  22610568.868          36.091      945459.528       -2754.651
  22243823.165          42.709      981361.188       -2904.809
 17 07 17 11 52 08.000309   0  8G05G16G18G20G21G26G29G31
  24992957.175          22.820       28645.285       -1695.529
  21896626.024          18.793     -851293.349        2403.749
  23917764.417          27.331     -894377.398        2552.038
  23008459.415          23.924     -185186.664         420.920
  20964105.392          34.769        2454.980        -106.060
  20651234.191          41.292     -393185.757        1047.124
  22611092.008          35.590      948214.219       -2754.867
  22244378.077          42.688      984266.208       -2905.035
 17 07 17 11 52 09.000309   0  8G05G16G18G20G21G26G29G31
  24993275.855          22.477       30345.407       -1690.902
  21896015.646          20.026     -853698.202        2402.090
  23917269.760          25.148     -896929.188        2552.688
  23008367.679          26.051     -185607.958         420.470
  20964125.778          35.775        2561.386        -106.561
  20651031.829          42.070     -394232.699        1047.100
  22611612.448          35.545      950968.911       -2754.605
  22244926.097          42.771      987171.608       -2905.318
 17 07 17 11 52 10.000309   0  8G05G16G18G20G21G26G29G31
  24993494.280          21.934       32035.725       -1681.607
  21895459.704          19.898     -856104.153        2400.653
  23916735.404          23.938     -899481.071        2552.286
  23008227.549          25.204     -186028.859         420.762
  20964073.789          34.884        2668.263        -107.241
  20650761.591          41.605     -395279.205        1046.071
  22612067.406          35.326      953723.624       -2754.972
  22245410.437          42.890      990077.373       -2905.976
 17 07 17 11 52 11.000309   0  8G05G16G18G20G21G26G29G31
  24993866.920          23.120       33726.722       -1690.625
  21895031.301          20.242     -858511.207        2398.191
  23916221.260          25.260     -902032.817        2550.993
  23008154.402          28.358     -186448.999         419.714
  20964097.775          33.499        2775.720        -107.813
  20650561.031          40.655     -396325.173        1045.602
  22612592.042          38.417      956478.559       -2755.117
  22245962.055          42.984      992983.609       -2906.459
 17 07 17 11 52 12.000309   0  8G05G16G18G20G21G26G29G31
  24994190.696          22.913       35418.287       -1697.837
  21894598.702          22.267     -860915.721        2398.035
  23915742.491          27.706     -904584.515        2551.527
  23008059.669          29.004     -186868.482         419.114
  20964121.455          33.620        2883.737        -108.225
  20650362.866          39.077     -397370.758        1045.598
  22613118.480          39.225      959233.577       -2755.039
  22246514.874          43.596      995890.184       -2906.700
 17 07 17 11 52 13.000309   0  8G05G16G18G20G21G26G29G31
  24994438.201          21.550       37115.696       -1691.366
  21894091.027          20.998     -863313.087        2393.716
  23915183.552          28.901     -907135.998        2551.698
  23007908.446          30.819     -187287.423         418.363
  20964058.376          33.434        2992.125        -108.696
  20650090.831          39.356     -398415.947        1044.955
  22613572.539          39.998      961988.662       -2755.162
  22246995.017          43.017      998797.062       -2907.227
 17 07 17 11 52 14.000309   0  8G05G16G18G20G21G26G29G31
  24994774.266          21.318       38807.540       -1688.550
  21893625.446          23.174     -865710.334        2392.812
  23914697.288          28.534     -909687.362        2551.103
  23007829.601          31.362     -187705.753         417.923
  20964082.959          34.386        3101.252        -109.303
  20649892.365          40.092     -399460.535        1044.377
  22614092.381          39.596      964743.971       -2755.116
  22247548.433          42.901     1001704.456       -2907.663
 17 07 17 11 52 15.000309   0  8G05G16G18G20G21G26G29G31
  24995110.933          22.068       40500.519       -1693.513
  21893165.267          24.191     -868107.622        2397.233
  23914202.330          30.174     -912238.799        2551.418
  23007763.648          31.263     -188123.457         417.479
  20964109.641          34.045        3210.820        -109.845
  20649693.306          40.083     -400504.719        1043.747
  22614608.921          38.986      967499.464       -2755.475
  22248105.745          43.339     1004612.173       -2907.788
 17 07 17 11 52 16.000308   0  8G05G16G18G20G21G26G29G31
  24995368.930          21.547       42194.271       -1696.805
  21892649.198          22.136     -870507.768        2394.376
  23913654.786          30.666     -914789.796        2550.665
  23007606.129          30.770     -188540.361         416.591
  20964058.547          33.754        3321.128        -110.759
  20649424.865          40.221     -401548.366        1043.613
  22615074.074          38.271      970255.146       -2755.717
  22248584.688          43.289     1007520.373       -2908.634
 17 07 17 11 52 17.000308   0  8G05G16G18G20G21G26G29G31
  24995697.802          19.513       43888.640       -1696.325
  21892190.816          23.630     -872904.421        2396.217
  23913152.634          29.190     -917340.908        2550.707
  23007526.085          29.134     -188956.690         416.305
  20964074.439          34.241        3431.830        -110.784
  20649227.900          40.242     -402591.469        1043.025
  22615597.811          39.041      973010.887       -2756.046
  22249136.909          41.726     1010428.913       -2908.461
 17 07 17 11 52 18.000308   0  8G05G16G18G20G21G26G29G31
  24995897.039          18.883       45583.047       -1695.600
  21891642.971          23.287     -875300.623        2395.660
  23912610.482          29.284     -919891.840        2550.754
  23007367.969          29.044     -189372.424         415.094
  20964032.341          34.126        3543.160        -111.964
  20648954.363          39.953     -403634.150        1042.287
  22616043.176          39.031      975766.718       -2755.977
  22249623.347          41.606     1013337.886       -2909.024
 17 07 17 11 52 19.000308   0  7G16G18G20G21G26G29G31
  21891203.474          25.713     -877696.945        2397.208
  23912105.931          29.180     -922442.471        2550.586
  23007291.524          30.412     -189787.242         414.109
  20964050.930          34.115        3655.154        -112.640
  20648760.701          40.742     -404676.235        1041.688
  22616573.510          36.901      978522.934       -2756.473
  22250173.465          41.320     1016247.405       -2909.931
 17 07 17 11 52 20.000308   0  7G16G18G20G21G26G29G31
  21890760.679          24.113     -880093.228        2400.174
  23911645.149          29.400     -924992.974        2550.406
  23007219.271          29.049     -190201.632         414.099
  20964065.919          34.363        3767.750        -112.911
  20648566.733          39.072     -405717.857        1041.504
  22617096.048          36.760      981279.229       -2756.436
  22250725.982          40.986     1019157.386       -2910.263
 17 07 17 11 52 21.000308   0  7G16G18G20G21G26G29G31
  21890206.238          25.658     -882488.863        2393.474
  23911078.720          29.683     -927543.473        2550.220
  23007062.957          28.674     -190615.349         413.669
  20964020.523          34.834        3880.828        -113.405
  20648296.494          39.289     -406758.946        1040.834
  22617555.804          36.103      984035.667       -2756.652
  22251215.116          42.575     1022067.656       -2910.265
 17 07 17 11 52 22.000308   0  7G16G18G20G21G26G29G31
  21889752.052          27.023     -884883.976        2394.853
  23910596.950          30.898     -930093.838        2550.392
  23006996.100          28.504     -191028.604         413.027
  20964033.715          34.859        3994.429        -113.741
  20648096.532          40.822     -407799.659        1040.537
  22618076.846          39.274      986792.259       -2756.450
  22251768.834          43.222     1024978.355       -2911.106
 17 07 17 11 52 23.000308   0  7G16G18G20G21G26G29G31
  21889295.170          28.466     -887278.859        2395.186
  23910098.397          28.705     -932643.952        2550.164
  23006911.558          28.695     -191441.129         412.294
  20964064.894          35.658        4108.536        -114.046
  20647899.271          41.116     -408839.915        1040.196
  22618605.980          38.507      989549.023       -2756.609
  22252322.250          43.231     1027889.359       -2911.067
 17 07 17 11 52 24.000308   0  7G16G18G20G21G26G29G31
  21888792.892          26.865     -889673.571        2394.110
  23909559.844          28.004     -935194.222        2550.266
  23006743.552          27.383     -191852.975         410.910
  20964008.107          33.657        4223.204        -114.776
  20647629.931          40.059     -409879.728        1039.368
  22619052.841          37.584      992305.850       -2756.964
  22252802.693          43.789     1030800.818       -2911.896
 17 07 17 11 52 25.000308   0  7G16G18G20G21G26G29G31
  21888321.016          25.032     -892067.690        2394.278
  23909066.683          30.367     -937744.249        2549.948
  23006659.909          26.236     -192264.328         411.504
  20964033.889          33.658        4338.498        -115.266
  20647424.573          41.154     -410918.974        1038.992
  22619572.382          38.088      995062.861       -2757.273
  22253360.607          44.146     1033712.708       -2912.032
 17 07 17 11 52 26.000308   0  7G16G18G20G21G26G29G31
  21887871.032          25.995     -894461.667        2393.804
  23908569.928          30.338     -940294.106        2549.777
  23006592.455          24.860     -192674.974         410.217
  20964064.467          33.648        4454.259        -115.831
  20647231.508          41.832     -411957.776        1038.449
  22620104.513          38.653      997819.968       -2757.289
  22253911.624          43.887     1036624.953       -2912.607
 17 07 17 11 52 27.000307   0  7G16G18G20G21G26G29G31
  21887336.676          27.751     -896855.343        2393.541
  23908014.588          28.250     -942843.863        2549.770
  23006442.732          22.293     -193084.792         404.654
  20963998.989          32.908        4570.637        -116.466
  20646959.467          41.355     -412996.151        1038.297
  22620555.575          38.947     1000577.145       -2757.104
  22254395.964          43.227     1039537.534       -2912.742
 17 07 17 11 52 28.000307   0  7G16G18G20G21G26G29G31
  21886888.183          25.429     -899248.773        2393.548
  23907534.319          26.576     -945393.499        2548.607
  23006393.566          23.395     -193495.590         407.924
  20964028.065          34.074        4687.443        -117.014
  20646762.206          41.523     -414034.110        1037.616
  22621079.614          39.167     1003334.342       -2757.437
  22254948.782          43.439     1042450.508       -2913.264
 17 07 17 11 52 29.000307   0  7G16G18G20G21G26G29G31
  21886388.304          22.666     -901641.622        2391.317
  23906980.178          22.488     -947937.352        2547.193
  23006229.456          24.818     -193904.922         409.829
  20963976.679          34.590        4804.925        -117.925
  20646490.467          41.132     -415071.423        1036.851
  22621530.078          37.782     1006091.835       -2758.048
  22255432.821          43.585     1045363.912       -2913.876
 17 07 17 11 52 30.000307   0  7G16G18G20G21G26G29G31
  21885920.329          24.495     -904034.215        2387.518
  23906494.216          24.678     -950484.794        2549.859
  23006159.602          26.977     -194313.126         407.885
  20964006.056          34.685        4922.856        -118.160
  20646293.506          40.895     -416108.423        1036.747
  22622056.211          38.442     1008849.442       -2757.580
  22255986.538          42.600     1048277.659       -2913.932
 17 07 17 11 52 31.000307   0  7G16G18G20G21G26G29G31
  21885451.756          25.506     -906427.183        2393.633
  23906019.644          21.609     -953037.821        2553.648
  23006090.652          26.088     -194720.239         407.379
  20964034.238          33.854        5041.327        -118.446
  20646099.242          40.775     -417144.929        1036.344
  22622580.848          38.675     1011607.120       -2757.803
  22256542.354          43.490     1051191.822       -2914.310
 17 07 17 11 52 32.000307   0  7G16G18G20G21G26G29G31
  21884959.969          21.728     -908820.803        2392.607
  23905404.044          20.123     -955594.116        2551.682
  23005917.245          27.474     -195127.032         406.770
  20963978.651          33.378        5160.336        -119.590
  20645825.705          38.568     -418180.997        1035.687
  22623036.708          37.802     1014364.920       -2758.010
  22257020.398          43.246     1054106.443       -2914.926
 17 07 17 11 52 33.000307   0  7G16G18G20G21G26G29G31
  21884472.205          21.846     -911217.663        2389.003
  23904959.151          21.339     -958150.444        2550.643
  23005841.699          26.425     -195533.204         405.854
  20964005.930          33.347        5280.016        -119.884
  20645635.035          39.919     -419216.402        1035.094
  22623552.354          37.907     1017123.005       -2758.067
  22257579.211          41.546     1057021.498       -2915.486
 17 07 17 11 52 34.000307   0  7G16G18G20G21G26G29G31
  21884024.315          28.134     -913609.352        2391.897
  23904489.378          24.461     -960701.820        2545.860
  23005783.537          25.639     -195938.638         405.715
  20964020.623          34.655        5400.343        -120.708
  20645442.267          41.877     -420251.338        1034.666
  22624081.483          39.188     1019881.223       -2757.967
  22258135.925          41.550     1059937.030       -2915.859
 17 07 17 11 52 35.000307   0  7G16G18G20G21G26G29G31
  21883504.948          29.578     -916000.647        2391.265
  23903899.259          20.937     -963247.320        2540.653
  23005625.124          29.011     -196343.447         404.157
  20963974.327          34.581        5521.248        -121.145
  20645171.732          42.147     -421285.744        1033.975
  22624536.144          39.067     1022639.723       -2758.683
  22258616.966          39.715     1062852.968       -2916.148
 17 07 17 11 52 36.000307   0  7G16G18G20G21G26G29G31
  21883026.782          26.308     -918391.770        2390.585
  23903437.278          20.387     -965783.443        2541.620
  23005546.877          27.696     -196747.708         403.245
  20963995.612          33.914        5642.639        -121.835
  20644972.067          42.552     -422319.742        1033.761
  22625065.279          37.533     1025398.198       -2758.876
  22259171.582          41.666     1065769.163       -2916.408
 17 07 17 11 52 37.000307   0  7G16G18G20G21G26G29G31
  21882576.793          22.916     -920782.075        2387.023
  23902966.305          21.412     -968326.788        2545.064
  23005468.033          28.566     -197151.315         402.658
  20964020.496          35.801        5764.564        -122.172
  20644780.799          40.260     -423353.164        1032.979
  22625577.922          34.338     1028156.963       -2758.774
  22259730.993          41.958     1068686.020       -2917.237
 17 07 17 11 52 38.000306   0  7G16G18G20G21G26G29G31
  21882052.030          25.361     -923172.475        2390.092
  23902398.074          24.433     -970875.133        2550.770
  23005314.414          27.177     -197553.800         402.057
  20963972.404          37.972        5887.296        -123.268
  20644516.860          39.317     -424386.078        1032.672
  22626022.689          32.469     1030915.997       -2758.843
  22260212.636          40.889     1071603.238       -2917.271
 17 07 17 11 52 39.000306   0  7G16G18G20G21G26G29G31
  21881586.751          28.248     -925562.548        2389.915
  23901903.417          22.819     -973424.535        2552.493
  23005255.053          24.794     -197956.734         397.118
  20963992.192          36.101        6010.466        -123.743
  20644315.698          40.694     -425418.523        1032.294
  22626548.826          37.904     1033674.904       -2759.216
  22260763.653          41.080     1074520.792       -2917.826
 17 07 17 11 52 40.000306   0  7G16G18G20G21G26G29G31
  21880992.614          26.254     -927952.944        2390.689
  23901283.494          28.108     -975972.457        2547.817
  23004991.585          24.189     -198357.806         400.580
  20963880.118          35.253        6134.176        -124.205
  20643972.483          41.210     -426450.464        1031.827
  22626940.104          40.789     1036434.107       -2759.182
  22261182.214          41.870     1077438.764       -2918.135
 17 07 17 11 52 41.000306   0  7G16G18G20G21G26G29G31
  21880545.924          25.205     -930342.403        2389.132
  23900802.627          27.588     -978520.346        2547.275
  23004939.121          25.204     -198758.745         400.766
  20963900.203          35.679        6258.482        -124.748
  20643773.123          42.357     -427481.877        1030.957
  22627466.241          40.982     1039193.452       -2759.569
  22261733.532          42.582     1080357.161       -2918.721
 17 07 17 11 52 42.000306   0  7G16G18G20G21G26G29G31
  21880077.647          26.328     -932731.553        2389.489
  23900319.962          27.059     -981067.978        2547.090
  23004850.683          26.320     -199159.101         400.216
  20963919.987          35.489        6383.295        -125.155
  20643579.155          41.506     -428512.815        1030.770
  22627989.979          40.804     1041952.962       -2759.570
  22262289.347          44.145     1083275.979       -2919.062
 17 07 17 11 52 43.000306   0  7G16G18G20G21G26G29G31
  21879560.078          28.419     -935120.623        2388.906
  23899784.406          26.897     -983615.843        2548.065
  23004722.546          29.421     -199558.823         399.235
  20963871.598          35.167        6508.704        -125.587
  20643315.814          42.014     -429543.392        1030.426
  22628440.439          39.986     1044712.516       -2759.537
  22262770.986          43.479     1086195.177       -2919.277
 17 07 17 11 52 44.000306   0  7G16G18G20G21G26G29G31
  21879089.105          26.331     -937509.365        2388.834
  23899292.446          28.224     -986163.250        2547.265
  23004637.402          28.221     -199957.884         398.672
  20963901.276          36.438        6634.720        -126.165
  20643113.754          41.806     -430573.320        1029.660
  22628969.272          39.280     1047472.333       -2759.902
  22263329.502          43.357     1089114.803       -2919.797
 17 07 17 11 52 45.000306   0  7G16G18G20G21G26G29G31
  21878653.509          25.909     -939897.660        2388.407
  23898815.178          29.893     -988710.691        2547.743
  23004563.357          28.127     -200356.257         398.164
  20963920.162          35.797        6761.268        -126.951
  20642920.684          41.797     -431602.834        1029.402
  22629495.409          39.971     1050232.290       -2760.164
  22263883.516          43.781     1092034.930       -2920.316
 17 07 17 11 52 46.000305   0  7G16G18G20G21G26G29G31
  21878114.354          25.499     -942285.617        2387.739
  23898237.650          30.833     -991257.796        2547.051
  23004422.926          28.052     -200753.880         397.626
  20963871.471          35.323        6888.481        -127.570
  20642650.747          41.271     -432631.779        1028.959
  22629944.975          39.867     1052992.462       -2760.052
  22264369.357          44.237     1094955.384       -2920.374
 17 07 17 11 52 47.000305   0  7G16G18G20G21G26G29G31
  21877676.056          23.716     -944673.298        2384.711
  23897763.379          30.278     -993804.932        2547.037
  23004359.071          29.082     -201150.982         396.888
  20963891.256          33.933        7016.174        -128.204
  20642459.480          40.423     -433660.252        1028.066
  22630466.012          38.714     1055752.801       -2760.453
  22264927.567          44.814     1097876.299       -2921.165
 17 07 17 11 52 48.000305   0  7G16G18G20G21G26G29G31
  21877235.364          25.311     -947060.849        2387.775
  23897265.424          27.837     -996351.928        2546.587
  23004290.719          28.936     -201547.374         395.644
  20963923.334          34.966        7144.403        -128.761
  20642264.617          41.490     -434688.244        1027.483
  22630992.149          39.150     1058513.262       -2760.649
  22265482.484          44.627     1100797.602       -2921.679
 17 07 17 11 52 49.000305   0  7G16G18G20G21G26G29G31
  21876692.313          29.261     -949447.969        2386.840
  23896693.297          25.722     -998897.822        2542.963
  23004135.002          30.295     -201943.066         395.541
  20963880.341          36.648        7273.213        -129.110
  20641994.374          40.547     -435715.776        1027.092
  22631451.906          40.063     1061273.775       -2760.463
  22265965.323          43.700     1103719.423       -2922.181
 17 07 17 11 52 50.000305   0  7G16G18G20G21G26G29G31
  21876236.331          29.581     -951834.737        2386.389
  23896246.606          24.095    -1001443.124        2542.522
  23004055.254          31.487     -202338.101         394.590
  20963898.925          35.957        7402.731        -129.596
  20641797.113          41.209     -436742.704        1026.790
  22631972.345          39.679     1064034.611       -2760.824
  22266519.040          43.658     1106641.547       -2922.161
 17 07 17 11 52 51.000305   0  7G16G18G20G21G26G29G31
  21875734.349          26.825     -954221.117        2385.942
  23895676.874          24.560    -1003989.640        2545.720
  23003913.628          31.498     -202732.320         393.749
  20963852.634          35.076        7532.835        -130.562
  20641535.569          42.435     -437769.066        1026.023
  22632426.705          39.242     1066795.603       -2761.072
  22267009.675          44.603     1109564.279       -2923.043
 17 07 17 11 52 52.000305   0  7G16G18G20G21G26G29G31
  21875279.867          29.605     -956607.128        2385.692
  23895205.299          27.065    -1006535.815        2545.771
  23003849.172          32.258     -203125.843         393.199
  20963880.812          35.698        7663.741        -131.499
  20641335.306          42.705     -438794.790        1025.491
  22632954.339          39.225     1069556.901       -2761.330
  22267563.994          44.371     1112487.538       -2923.454
 17 07 17 11 52 53.000305   0  7G16G18G20G21G26G29G31
  21874836.771          29.613     -958992.683        2384.836
  23894718.137          26.567    -1009081.721        2545.466
  23003761.035          33.166     -203518.672         392.160
  20963903.898          34.439        7795.114        -131.531
  20641139.842          42.857     -439819.998        1024.858
  22633480.773          38.575     1072318.481       -2761.982
  22268121.908          43.873     1115411.268       -2923.965
 17 07 17 11 52 54.000305   0  7G16G18G20G21G26G29G31
  21874308.112          30.253     -961377.757        2384.692
  23894150.804          27.430    -1011627.254        2545.219
  23003606.814          32.136     -203910.594         391.361
  20963859.701          34.998        7927.342        -132.336
  20640876.797          42.033     -440844.470        1024.140
  22633941.729          38.435     1075080.280       -2761.957
  22268604.747          43.524     1118335.586       -2924.746
 17 07 17 11 52 55.000305   0  7G16G18G20G21G26G29G31
  21873868.018          28.236     -963762.662        2384.972
  23893655.545          29.048    -1014172.809        2545.563
  23003555.550          31.999     -204301.904         390.969
  20963878.290          34.555        8060.190        -132.958
  20640684.334          41.902     -441868.463        1023.717
  22634463.669          38.593     1077842.360       -2762.223
  22269160.563          43.899     1121260.346       -2925.124
 17 07 17 11 52 56.000304   0  7G16G18G20G21G26G29G31
  21873336.061          26.749     -966147.075        2383.680
  23893112.796          26.842    -1016718.120        2545.305
  23003421.118          29.165     -204692.567         389.370
  20963831.995          35.942        8193.565        -133.797
  20640414.096          41.372     -442891.875        1022.806
  22634918.029          35.862     1080604.573       -2762.280
  22269647.899          43.305     1124185.555       -2925.476
 17 07 17 11 52 57.000304   0  7G16G18G20G21G26G29G31
  21872880.073          26.837     -968531.199        2384.114
  23892641.522          24.505    -1019258.569        2543.637
  23003315.291          28.015     -205082.561         389.372
  20963871.271          33.996        8327.664        -134.238
  20640218.928          41.827     -443914.820        1022.523
  22635445.061          36.513     1083367.055       -2762.526
  22270205.211          44.154     1127111.205       -2925.910
 17 07 17 11 52 58.000304   0  7G16G18G20G21G26G29G31
  21872412.399          25.867     -970914.905        2383.196
  23892134.576          23.534    -1021803.446        2544.562
  23003263.128          25.501     -205471.762         389.276
  20963883.560          33.199        8462.317        -135.371
  20640024.363          41.274     -444937.151        1021.931
  22635963.402          35.702     1086129.739       -2762.789
  22270760.429          45.209     1130037.349       -2926.625
 17 07 17 11 52 59.000304   0  7G16G18G20G21G26G29G31
  21871888.238          26.886     -973298.351        2383.290
  23891575.636          24.856    -1024348.210        2544.916
  23003094.520          27.561     -205860.357         388.574
  20963839.965          33.490        8597.535        -135.287
  20639759.822          40.922     -445958.995        1021.592
  22636419.263          36.797     1088892.503       -2762.751
  22271242.971          44.859     1132963.913       -2926.696
 17 07 17 11 53 00.000304   0  7G16G18G20G21G26G29G31
  21871427.757          26.338     -975681.574        2382.702
  23891094.469          24.495    -1026892.708        2544.204
  23003036.358          29.821     -206248.139         387.552
  20963857.952          33.315        8733.394        -136.224
  20639565.557          41.049     -446980.379        1021.162
  22636945.400          37.734     1091655.462       -2762.999
  22271802.382          44.940     1135890.864       -2927.074
 17 07 17 11 53 01.000304   0  7G16G18G20G21G26G29G31
  21870962.177          25.611     -978064.413        2382.914
  23890623.496          26.007    -1029437.193        2544.498
  23002953.618          28.812     -206635.432         386.525
  20963898.724          33.456        8869.676        -136.476
  20639369.792          42.261     -448001.233        1020.728
  22637472.432          39.561     1094418.600       -2763.101
  22272358.197          45.242     1138818.274       -2927.565
 17 07 17 11 53 02.000304   0  7G16G18G20G21G26G29G31
  21870419.126          23.925     -980446.882        2381.777
  23890039.075          24.818    -1031981.495        2544.098
  23002806.591          28.002     -207022.064         386.569
  20963848.533          32.592        9006.648        -137.226
  20639104.649          41.938     -449021.598        1019.959
  22637927.695          38.905     1097181.871       -2763.540
  22272845.233          45.111     1141746.098       -2928.163
 17 07 17 11 53 03.000304   0  7G16G18G20G21G26G29G31
  21869972.435          24.971     -982829.003        2382.039
  23889574.995          23.349    -1034525.720        2544.902
  23002749.031          27.418     -207407.795         385.346
  20963874.015          32.965        9144.287        -138.306
  20638913.683          41.676     -450041.310        1019.312
  22638450.529          37.936     1099945.432       -2763.667
  22273400.752          45.035     1144674.377       -2928.611
 17 07 17 11 53 04.000304   0  7G16G18G20G21G26G29G31
  21869531.743          26.077     -985210.755        2381.288
  23889092.628          23.179    -1037069.607        2543.756
  23002677.682          27.375     -207792.988         384.930
  20963904.295          33.428        9282.421        -138.336
  20638712.822          41.530     -451060.595        1018.916
  22638972.470          37.071     1102709.095       -2763.785
  22273959.861          45.802     1147603.160       -2929.064
 17 07 17 11 53 05.000304   0  7G16G18G20G21G26G29G31
  21869001.584          26.506     -987592.321        2381.040
  23888521.098          22.397    -1039613.451        2545.128
  23002509.375          27.449     -208177.707         384.009
  20963863.998          33.525        9421.066        -138.578
  20638451.876          41.625     -452079.464        1018.734
  22639430.725          37.115     1105472.874       -2763.790
  22274446.600          45.639     1150532.172       -2929.212
 17 07 17 11 53 06.000304   0  7G16G18G20G21G26G29G31
  21868565.084          25.176     -989973.818        2381.407
  23888050.723          25.651    -1042157.211        2543.665
  23002434.125          26.950     -208561.832         383.769
  20963882.583          33.842        9560.286        -139.492
  20638258.510          41.959     -453097.841        1018.056
  22639960.758          37.863     1108236.708       -2764.057
  22275004.213          45.755     1153461.614       -2929.637
 17 07 17 11 53 07.000304   0  7G16G18G20G21G26G29G31
  21868043.322          25.621     -992354.799        2380.955
  23887483.992          25.028    -1044700.892        2543.963
  23002290.400          27.801     -208945.097         383.253
  20963837.191          33.552        9700.115        -140.147
  20637993.367          41.709     -454115.744        1017.742
  22640413.919          37.268     1111000.728       -2763.886
  22275491.549          46.018     1156391.405       -2929.743
 17 07 17 11 53 08.000304   0  7G16G18G20G21G26G29G31
  21867612.219          24.717     -994735.659        2381.205
  23887017.814          25.663    -1047244.534        2543.662
  23002230.442          26.762     -209328.019         382.113
  20963864.173          33.159        9840.284        -140.438
  20637796.105          41.313     -455133.318        1017.188
  22640945.452          37.879     1113764.705       -2764.080
  22276049.765          45.870     1159321.561       -2930.525
 17 07 17 11 53 09.000304   0  7G16G18G20G21G26G29G31
  21867144.846          25.693     -997116.204        2380.359
  23886521.059          27.433    -1049787.979        2543.113
  23002155.794          27.368     -209710.205         381.745
  20963897.747          33.394        9981.030        -141.054
  20637606.037          40.546     -456150.317        1016.852
  22641469.788          38.191     1116528.948       -2764.215
  22276604.380          45.633     1162252.070       -2930.771
 17 07 17 11 53 10.000303   0  7G16G18G20G21G26G29G31
  21866622.181          26.193     -999496.450        2380.374
  23885962.421          28.002    -1052331.293        2543.687
  23002010.569          28.970     -210091.724         381.431
  20963840.362          33.427       10122.471        -141.449
  20637335.197          40.465     -457166.833        1016.674
  22641926.848          38.475     1119293.339       -2764.129
  22277090.517          45.341     1165183.060       -2931.043
 17 07 17 11 53 11.000303   0  7G16G18G20G21G26G29G31
  21866179.085          27.842    -1001876.303        2379.872
  23885473.758          29.131    -1054874.317        2542.891
  23001950.906          26.350     -210473.203         383.095
  20963868.243          33.507       10264.579        -142.458
  20637143.929          40.493     -458182.712        1015.653
  22642447.886          38.304     1122058.049       -2764.925
  22277650.233          44.417     1168114.587       -2931.596
 17 07 17 11 53 12.000303   0  7G16G18G20G21G26G29G31
  21865716.205          29.380    -1004255.982        2379.853
  23884998.588          27.236    -1057417.384        2542.965
  23001883.453          26.198     -210853.193         380.068
  20963897.922          32.661       10407.119        -142.861
  20636952.361          40.950     -459198.137        1015.045
  22642975.820          40.637     1124822.796       -2764.650
  22278208.745          42.500     1171046.515       -2932.321
 17 07 17 11 53 13.000303   0  8G16G18G20G21G25G26G29G31
  21865195.041          28.918    -1006635.175        2379.610
  23884426.156          25.387    -1059960.039        2542.917
  23001730.436          27.838     -211232.645         378.980
  20963853.729          31.949       10550.348        -143.697
  24867416.247          22.525       66468.026       -3498.441
  20636688.121          41.709     -460213.054        1014.662
  22643435.276          41.354     1127587.849       -2765.248
  22278689.485          41.180     1173978.866       -2932.600
 17 07 17 11 53 14.000303   0  8G16G18G20G21G25G26G29G31
  21864713.873          28.352    -1009014.007        2378.401
  23883953.687          22.113    -1062502.538        2542.175
  23001664.780          28.341     -211611.329         378.585
  20963875.315          32.689       10694.140        -143.887
  24868063.201          22.143       69965.401       -3496.596
  20636496.251          41.558     -461227.364        1014.110
  22643956.618          42.089     1130353.050       -2765.410
  22279251.897          41.291     1176911.644       -2932.831
 17 07 17 11 53 15.000303   0  8G16G18G20G21G25G26G29G31
  21864138.321          27.519    -1011392.596        2378.651
  23883314.577          20.256    -1065038.786        2544.156
  23001454.077          29.041     -211989.508         378.068
  20963768.934          35.331       10838.366        -144.373
  24868593.583          23.097       73462.884       -3497.383
  20636160.234          41.971     -462241.384        1014.078
  22644344.899          41.842     1133118.226       -2765.004
  22279669.555          42.267     1179844.647       -2932.876
 17 07 17 11 53 16.000303   0  8G16G18G20G21G25G26G29G31
  21863673.945          27.653    -1013771.312        2378.065
  23882825.914          15.962    -1067586.492        2544.238
  23001360.840          30.841     -212367.232         377.421
  20963795.916          35.573       10983.013        -145.010
  24869253.423          21.592       76960.381       -3495.680
  20635965.669          41.495     -463255.045        1013.405
  22644873.130          41.112     1135883.410       -2765.328
  22280225.074          42.486     1182778.019       -2933.665
 17 07 17 11 53 17.000303   0  8G16G18G20G21G25G26G29G31
  21863232.049          24.813    -1016149.883        2378.087
  23882345.946          15.969    -1070136.454        2544.275
  23001282.594          33.639     -212744.287         376.864
  20963819.300          34.782       11128.388        -145.608
  24869905.473          22.329       80463.434       -3501.500
  20635773.503          39.183     -464268.059        1013.098
  22645396.270          39.842     1138648.837       -2765.395
  22280782.085          42.857     1185711.827       -2933.774
 17 07 17 11 53 18.000302   0  8G16G18G20G21G25G26G29G31
  21862700.092          28.312    -1018527.689        2378.122
  23881835.876          19.516    -1072684.444        2543.769
  23001144.562          32.445     -213120.572         375.487
  20963778.405          34.658       11274.229        -145.938
  24870536.110          21.325       83970.289       -3498.981
  20635504.761          39.441     -465280.630        1012.230
  22645854.526          38.053     1141414.339       -2765.755
  22281274.220          43.903     1188646.053       -2934.255
 17 07 17 11 53 19.000302   0  8G16G18G20G21G25G26G29G31
  21862235.715          28.613    -1020905.250        2377.415
  23881329.226          27.112    -1075226.497        2542.229
  23001072.912          29.519     -213495.885         375.417
  20963807.783          34.257       11420.767        -146.880
  24871183.662          18.017       87466.211       -3490.462
  20635316.791          40.378     -466292.717        1011.989
  22646384.559          37.534     1144180.044       -2765.915
  22281827.039          44.516     1191580.708       -2934.764
 17 07 17 11 53 20.000302   0  8G16G18G20G21G25G26G29G31
  21861792.921          28.278    -1023282.466        2377.301
  23880843.862          29.046    -1077768.434        2541.588
  23000985.975          27.862     -213870.877         373.882
  20963835.066          33.991       11567.791        -147.202
  24871839.607          20.074       90953.657       -3493.434
  20635125.524          40.288     -467304.292        1011.175
  22646898.402          37.167     1146945.928       -2765.927
  22282389.446          44.425     1194515.771       -2935.293
 17 07 17 11 53 21.000302   0  8G16G18G20G21G25G26G29G31
  21861254.368          24.713    -1025659.705        2379.148
  23880274.731          28.906    -1080310.490        2542.035
  23000857.236          27.332     -214245.643         374.412
  20963792.666          34.710       11715.184        -147.713
  24872439.366          19.549       94441.341       -3494.258
  20634863.980          39.680     -468315.480        1011.153
  22647360.558          38.078     1149711.750       -2765.580
  22282874.684          44.640     1197451.054       -2935.368
 17 07 17 11 53 22.000302   0  8G16G18G20G21G25G26G29G31
  21860811.874          25.053    -1028036.327        2376.219
  23879806.154          29.387    -1082852.183        2541.160
  23000781.690          25.109     -214619.635         375.767
  20963822.048          35.434       11863.219        -148.361
  24873109.402          16.986       97934.137       -3494.930
  20634670.016          40.342     -469326.168        1010.265
  22647887.293          39.051     1152477.840       -2766.103
  22283434.697          44.171     1200386.824       -2936.023
 17 07 17 11 53 23.000302   0  8G16G18G20G21G25G26G29G31
  21860272.121          24.629    -1030412.974        2376.117
  23879258.906          28.820    -1085393.988        2541.446
  23000627.770          24.037     -214992.774         374.780
  20963776.952          35.782       12011.712        -148.572
  24873711.863          18.109      101428.709       -3496.021
  20634406.671          40.195     -470336.549        1010.237
  22648349.746          38.635     1155243.914       -2766.060
  22283921.436          44.638     1203322.847       -2936.102
 17 07 17 11 53 24.000302   0  8G16G18G20G21G25G26G29G31
  21859826.630          25.776    -1032789.206        2375.424
  23878778.641          28.439    -1087935.664        2541.575
  23000552.525          20.833     -215365.729         372.138
  20963803.333          36.724       12160.744        -149.456
  24874336.628          19.133      104929.415       -3496.518
  20634214.806          40.452     -471346.410        1009.550
  22648873.483          37.113     1158010.113       -2766.193
  22284480.248          44.144     1206259.301       -2936.906
 17 07 17 11 53 25.000302   0  8G16G18G20G21G25G26G29G31
  21859393.729          22.152    -1035167.224        2377.465
  23878283.683          28.472    -1090477.070        2541.351
  23000507.254          24.143     -215738.400         372.120
  20963832.414          34.711       12310.498        -149.760
  24875000.971          22.017      108428.633       -3499.523
  20634022.037          40.524     -472355.614        1008.985
  22649398.722          39.206     1160776.769       -2766.280
  22285037.861          43.445     1209196.336       -2937.043
 17 07 17 11 53 26.000302   0  8G16G18G20G21G25G26G29G31
  21858868.369          22.250    -1037546.966        2373.419
  23877729.242          29.299    -1093018.257        2541.188
  23000362.928          24.127     -216109.686         371.491
  20963782.222          34.542       12460.799        -150.702
  24875627.709          22.042      111928.238       -3501.084
  20633755.695          40.337     -473364.317        1008.406
  22649850.983          39.366     1163543.407       -2766.650
  22285527.898          43.182     1212133.702       -2937.514
 17 07 17 11 53 27.000302   0  8G16G18G20G21G25G26G29G31
  21858396.794          21.308    -1039923.665        2375.885
  23877242.076          29.172    -1095559.342        2540.953
  23000273.291          22.516     -216480.535         368.379
  20963819.697          35.117       12611.678        -151.159
  24876272.564          20.082      115427.610       -3503.460
  20633566.827          40.103     -474372.576        1008.096
  22650379.516          39.649     1166310.217       -2767.088
  22286084.914          43.329     1215071.508       -2937.885
 17 07 17 11 53 28.000302   0  8G16G18G20G21G25G26G29G31
  21857956.700          22.520    -1042298.425        2375.119
  23876764.210          27.830    -1098100.442        2540.843
  23000197.744          25.842     -216850.630         369.848
  20963850.876          35.004       12763.060        -151.679
  24876959.688          19.552      118927.342       -3503.156
  20633373.160          38.836     -475380.370        1007.686
  22650895.758          38.607     1169077.176       -2766.957
  22286643.425          44.674     1218009.662       -2938.336
 17 07 17 11 53 29.000301   0  8G16G18G20G21G25G26G29G31
  21857436.735          27.765    -1044673.077        2374.247
  23876201.973          28.585    -1100641.286        2540.903
  23000078.302          26.445     -217219.975         369.698
  20963806.081          34.567       12914.970        -152.213
  24877540.859          20.530      122427.312       -3503.765
  20633111.616          38.623     -476387.682        1007.173
  22651360.013          37.937     1171844.163       -2767.207
  22287130.465          44.289     1220948.209       -2938.988
 17 07 17 11 53 30.000301   0  8G16G18G20G21G25G26G29G31
  21856977.153          26.973    -1047047.485        2374.274
  23875719.906          29.077    -1103181.993        2540.946
  23000003.951          27.652     -217588.603         367.933
  20963841.758          35.064       13067.499        -152.746
  24878218.390          20.360      125927.492       -3502.918
  20632917.652          40.285     -477394.426        1006.492
  22651885.548          39.276     1174611.500       -2767.413
  22287687.476          43.675     1223887.184       -2939.154
 17 07 17 11 53 31.000301   0  8G16G18G20G21G25G26G29G31
  21856424.509          24.523    -1049422.214        2374.968
  23875169.662          30.783    -1105722.600        2540.622
  22999856.030          30.159     -217956.946         367.782
  20963801.461          37.394       13220.592        -153.510
  24878825.945          20.121      129429.418       -3502.880
  20632652.810          39.885     -478400.731        1006.070
  22652342.608          40.680     1177378.703       -2767.394
  22288179.913          43.216     1226826.604       -2939.429
 17 07 17 11 53 32.000301   0  8G16G18G20G21G25G26G29G31
  21856038.977          22.877    -1051791.465        2374.782
  23874691.792          31.045    -1108263.198        2540.909
  22999813.159          28.985     -218324.375         367.389
  20963824.844          36.832       13374.236        -153.678
  24879459.406          20.673      132929.683       -3501.797
  20632455.846          39.213     -479406.620        1005.983
  22652863.947          39.577     1180146.226       -2767.459
  22288738.725          43.478     1229766.277       -2939.623
 17 07 17 11 53 33.000301   0  8G16G18G20G21G25G26G29G31
  21855565.605          20.903    -1054164.668        2368.040
  23874198.334          30.670    -1110803.536        2540.292
  22999723.220          27.275     -218691.403         366.513
  20963856.922          36.386       13528.260        -154.399
  24880119.849          22.087      136430.054       -3498.295
  20632267.575          39.390     -480412.092        1004.989
  22653395.476          39.647     1182913.735       -2767.460
  22289295.741          43.585     1232706.343       -2940.266
 17 07 17 11 53 34.000301   0  8G16G18G20G21G25G26G29G31
  21855054.331          16.746    -1056530.832        2368.430
  23873642.994          30.132    -1113343.775        2540.075
  22999592.086          30.148     -219057.598         365.704
  20963813.925          37.020       13683.004        -155.084
  24880728.900          21.617      139930.599       -3500.236
  20632002.432          39.374     -481416.978        1004.409
  22653847.441          40.407     1185681.462       -2767.994
  22289784.277          43.058     1235646.858       -2940.848
 17 07 17 11 53 35.000301   0  8G16G18G20G21G25G26G29G31
  21854569.268          20.889    -1058897.328        2370.988
  23873151.631          30.405    -1115883.926        2540.099
  22999536.625          29.736     -219423.113         365.311
  20963849.000          36.515       13838.296        -155.707
  24881392.340          21.722      143428.798       -3501.227
  20631807.867          38.665     -482421.369        1004.208
  22654372.077          42.271     1188449.441       -2768.155
  22290342.191          42.861     1238587.834       -2941.230
 17 07 17 11 53 36.000301   0  8G16G18G20G21G25G26G29G31
  21854154.354          24.569    -1061270.189        2372.733
  23872659.675          28.487    -1118423.935        2539.777
  22999469.769          29.016     -219788.176         364.624
  20963869.386          36.395       13994.008        -155.892
  24882086.362          22.818      146929.587       -3500.130
  20631622.894          38.632     -483425.315        1003.569
  22654901.212          42.217     1191217.365       -2768.198
  22290906.099          43.280     1241529.012       -2941.379
 17 07 17 11 53 37.000301   0  8G16G18G20G21G25G26G29G31
  21853645.780          25.308    -1063642.617        2372.838
  23872113.326          27.428    -1120963.943        2540.414
  22999308.355          30.061     -220152.501         363.852
  20963828.788          35.920       14150.309        -156.720
  24882686.719          21.710      150430.173       -3498.340
  20631357.154          38.408     -484428.827        1003.131
  22655359.467          39.698     1193985.468       -2768.530
  22291393.135          42.882     1244470.675       -2941.644
 17 07 17 11 53 38.000301   0  8G16G18G20G21G25G26G29G31
  21853162.518          25.433    -1066014.793        2371.871
  23871639.954          26.546    -1123503.635        2539.084
  22999246.297          28.255     -220516.267         363.831
  20963863.567          36.340       14307.124        -157.184
  24883314.787          20.040      153934.836       -3503.652
  20631166.488          39.085     -485431.848        1002.776
  22655882.603          40.383     1196753.718       -2768.286
  22291954.648          43.635     1247412.700       -2942.301
 17 07 17 11 53 39.000300   0  8G16G18G20G21G25G26G29G31
  21852631.757          24.789    -1068386.738        2371.321
  23871071.722          24.800    -1126042.946        2538.634
  22999105.871          28.670     -220879.486         363.472
  20963814.872          35.777       14464.459        -157.466
  24883912.745          17.676      157438.731       -3503.843
  20630915.135          38.523     -486434.467        1002.633
  22656336.963          41.074     1199522.013       -2768.136
  22292442.582          43.279     1250355.096       -2942.365
 17 07 17 11 53 40.000300   0  8G16G18G20G21G25G26G29G31
  21852173.375          25.992    -1070758.603        2371.594
  23870612.441          27.706    -1128582.716        2539.419
  22999034.818          29.602     -221242.147         362.512
  20963846.950          36.556       14622.228        -157.829
  24884581.285          21.042      160935.540       -3502.488
  20630722.070          39.661     -487436.646        1001.728
  22656874.194          40.477     1202290.373       -2768.520
  22292998.398          44.442     1253297.767       -2942.830
 17 07 17 11 53 41.000300   0  8G16G18G20G21G25G26G29G31
  21851709.897          23.498    -1073130.909        2368.594
  23870122.579          27.410    -1131122.423        2539.590
  22998958.674          27.241     -221604.776         362.492
  20963878.129          34.785       14780.491        -158.316
  24885275.904          21.714      164437.141       -3502.829
  20630529.603          40.564     -488438.508        1001.510
  22657400.628          39.116     1205058.772       -2768.149
  22293560.809          44.151     1256240.720       -2943.082
 17 07 17 11 53 42.000300   0  8G16G18G20G21G25G26G29G31
  21851210.616          21.492    -1075502.278        2376.724
  23869569.036          23.566    -1133661.367        2545.122
  22998812.847          27.694     -221966.722         362.075
  20963837.531          36.506       14939.212        -159.130
  24885839.088          22.774      167938.739       -3503.080
  20630272.553          40.422     -489440.033        1001.235
  22657848.994          40.866     1207827.176       -2768.422
  22294053.241          44.157     1259183.935       -2943.487
 17 07 17 11 53 43.000300   0  8G16G18G20G21G25G26G29G31
  21850767.524          21.091    -1077882.176        2375.423
  23869086.372          21.248    -1136205.822        2544.494
  22998746.593          28.117     -222327.555         360.894
  20963870.211          35.782       15098.486        -159.442
  24886523.215          22.995      171440.686       -3498.021
  20630079.488          38.451     -490440.912        1000.875
  22658374.228          39.400     1210595.799       -2768.809
  22294607.857          43.365     1262127.607       -2943.666
 17 07 17 11 53 44.000300   0  8G16G18G20G21G25G26G29G31
  21850304.343          22.813    -1080254.342        2372.752
  23868606.704          26.881    -1138753.677        2539.503
  22998663.552          28.450     -222687.621         359.418
  20963893.594          35.702       15258.542        -160.629
  24887162.669          20.211      174943.276       -3503.301
  20629885.524          37.437     -491441.204        1000.402
  22658906.063          39.301     1213364.725       -2768.929
  22295169.069          43.267     1265071.893       -2944.585
 17 07 17 11 53 45.000300   0  8G16G18G20G21G25G26G29G31
  21849837.440          21.850    -1082624.181        2369.564
  23868060.055          28.485    -1141292.742        2538.946
  22998528.818          26.034     -223047.514         360.981
  20963858.990          35.972       15419.171        -160.594
  24887752.539          21.432      178445.637       -3503.059
  20629630.873          38.564     -492440.905         999.286
  22659367.617          38.462     1216133.772       -2768.846
  22295656.707          42.818     1268016.590       -2944.848
 17 07 17 11 53 46.000300   0  8G16G18G20G21G25G26G29G31
  21849363.471          24.300    -1084994.128        2369.817
  23867572.892          27.702    -1143831.466        2538.325
  22998467.660          29.638     -223406.159         358.110
  20963883.874          35.778       15580.410        -161.634
  24888421.973          19.596      181948.347       -3497.440
  20629439.004          37.572     -493440.162         998.776
  22659883.860          38.199     1218903.127       -2769.580
  22296216.418          42.292     1270961.776       -2945.790
 17 07 17 11 53 47.000300   0  8G16G18G20G21G25G26G29G31
  21848817.724          26.587    -1087363.570        2368.895
  23867031.643          27.956    -1146370.094        2538.648
  22998339.824          30.394     -223764.084         357.101
  20963843.878          35.539       15742.224        -162.020
  24889021.135          18.446      185451.314       -3497.045
  20629174.463          37.217     -494438.805         998.599
  22660345.413          38.939     1221672.610       -2769.629
  22296706.756          41.900     1273907.367       -2945.890
 17 07 17 11 53 48.000300   0  8G16G18G20G21G25G26G29G31
  21848372.229          25.151    -1089732.937        2369.041
  23866550.777          26.266    -1148908.664        2538.411
  22998257.084          31.239     -224121.577         357.668
  20963882.849          35.038       15904.665        -162.662
  24889697.466          17.486      188951.291       -3499.796
  20628985.595          37.101     -495436.991         998.083
  22660870.648          39.732     1224442.199       -2769.262
  22297265.569          42.251     1276853.311       -2945.989
 17 07 17 11 53 49.000300   0  8G16G18G20G21G25G26G29G31
  21847932.736          22.831    -1092102.007        2368.392
  23866039.629          25.635    -1151447.166        2538.521
  22998200.122          29.019     -224478.231         356.189
  20963905.033          35.723       16067.464        -162.983
  24890367.799          20.561      192451.847       -3501.218
  20628792.827          37.347     -496434.840         997.583
  22661401.880          36.598     1227211.851       -2769.135
  22297825.581          42.566     1279799.511       -2946.227
 17 07 17 11 53 50.000299   0  8G16G18G20G21G25G26G29G31
  21847407.074          21.497    -1094470.576        2367.227
  23865491.483          24.781    -1153985.748        2539.122
  22998051.298          25.738     -224834.731         354.157
  20963865.935          35.812       16230.641        -163.543
  24890963.362          18.234      195956.813       -3501.207
  20628529.485          37.955     -497432.353         997.379
  22661859.237          36.188     1229981.461       -2769.825
  22298314.715          42.579     1282745.997       -2946.729
 17 07 17 11 53 51.000299   0  8G16G18G20G21G25G26G29G31
  21846936.699          21.545    -1096840.729        2372.341
  23865002.222          27.036    -1156524.249        2538.777
  22997991.042          28.098     -225190.489         355.643
  20963892.019          35.924       16394.374        -163.805
  24891622.906          18.018      199463.697       -3500.781
  20628338.816          37.639     -498429.383         996.793
  22662382.076          35.846     1232751.153       -2769.645
  22298878.925          42.247     1285692.825       -2946.950
 17 07 17 11 53 52.000299   0  8G16G18G20G21G25G26G29G31
  21846487.609          19.910    -1099216.612        2371.546
  23864521.054          28.944    -1159062.622        2538.570
  22997911.596          28.967     -225545.706         354.895
  20963929.493          34.589       16558.555        -164.464
  24892265.959          17.823      202964.497       -3503.940
  20628153.547          38.463     -499426.024         996.331
  22662906.713          36.545     1235520.970       -2769.797
  22299433.244          41.920     1288639.988       -2947.322
 17 07 17 11 53 53.000299   0  8G16G18G20G21G25G26G29G31
  21845890.773          20.798    -1101589.805        2370.975
  23863884.344          28.584    -1161601.081        2537.909
  22997716.179          28.629     -225900.343         353.697
  20963823.414          35.635       16723.158        -165.055
  24892772.360          16.144      206474.630       -3504.687
  20627824.121          38.423     -500422.336         995.832
  22663294.697          37.936     1238290.732       -2769.795
  22299852.402          42.134     1291587.354       -2947.571
 17 07 17 11 53 54.000299   0  8G16G18G20G21G25G26G29G31
  21845431.788          22.313    -1103957.183        2368.341
  23863406.775          27.771    -1164139.358        2538.437
  22997655.919          28.408     -226254.524         354.051
  20963845.597          36.160       16888.369        -165.099
  24893437.000          15.985      209982.354       -3508.851
  20627628.055          37.953     -501418.131         995.617
  22663818.133          38.658     1241060.675       -2770.065
  22300414.212          41.107     1294535.236       -2948.032
 17 07 17 11 53 55.000299   0  8G16G18G20G21G25G26G29G31
  21844917.818          25.522    -1106329.150        2366.836
  23862864.326          26.762    -1166677.625        2538.405
  22997512.496          26.642     -226607.831         353.003
  20963811.896          35.618       17053.912        -165.257
  24894046.654          19.840      213496.059       -3507.809
  20627367.113          37.357     -502413.576         995.580
  22664272.790          38.506     1243830.653       -2769.818
  22300898.552          41.727     1297483.324       -2948.310
 17 07 17 11 53 56.000299   0  8G16G18G20G21G25G26G29G31
  21844463.336          23.636    -1108697.345        2371.575
  23862366.070          24.276    -1169215.912        2533.159
  22997445.941          29.154     -226961.121         352.612
  20963843.377          35.092       17219.854        -166.292
  24894704.697          16.509      217010.621       -3506.947
  20627178.843          38.670     -503408.784         994.906
  22664801.628          39.049     1246600.472       -2769.903
  22301467.856          42.487     1300431.501       -2948.452
 17 07 17 11 53 57.000299   0  8G16G18G20G21G25G26G29G31
  21844009.151          23.347    -1111065.122        2370.383
  23861880.104          21.881    -1171754.351        2535.853
  22997373.091          28.896     -227313.597         351.885
  20963871.253          35.571       17386.427        -166.683
  24895377.429          15.368      220515.065       -3507.508
  20626992.671          37.883     -504403.369         994.356
  22665331.058          38.241     1249370.638       -2770.446
  22302027.568          42.325     1303380.252       -2949.018
 17 07 17 11 53 58.000299   0  8G16G18G20G21G25G26G29G31
  21843489.182          23.782    -1113432.149        2366.690
  23861321.169          19.614    -1174292.512        2537.498
  22997221.871          27.137     -227665.446         351.418
  20963829.460          36.457       17553.570        -167.402
  24895973.293          16.704      224020.132       -3508.689
  20626724.531          39.171     -505397.554         993.978
  22665787.818          38.140     1252140.734       -2770.279
  22302517.003          41.936     1306329.309       -2949.407
 17 07 17 11 53 59.000299   0  8G16G18G20G21G25G26G29G31
  21843044.590          27.286    -1115798.974        2366.477
  23860847.496          22.592    -1176830.854        2534.675
  22997174.503          28.924     -228016.799         350.980
  20963862.738          36.844       17721.052        -168.070
  24896656.220          15.291      227533.085       -3507.346
  20626540.161          38.539     -506391.427         993.864
  22666313.955          39.697     1254910.811       -2770.187
  22303075.519          41.778     1309278.658       -2949.399
 17 07 17 11 54 00.000299   0  8G16G18G20G21G25G26G29G31
  21842573.918          23.590    -1118163.291        2368.774
  23860376.523          24.482    -1179368.714        2536.954
  22997086.065          25.526     -228367.027         355.021
  20963895.413          35.868       17889.040        -168.490
  24897344.544          14.213      231049.153       -3507.367
  20626347.392          38.991     -507384.829         993.230
  22666840.690          37.149     1257681.038       -2770.322
  22303641.525          41.990     1312228.314       -2950.109
 17 07 17 11 54 01.000298   0  8G16G18G20G21G25G26G29G31
  21842044.958          21.196    -1120530.027        2367.888
  23859810.687          25.778    -1181906.653        2537.674
  22996949.534          24.437     -228717.274         349.885
  20963855.116          36.413       18057.480        -168.741
  24897924.816          13.788      234556.183       -3508.438
  20626089.448          39.755     -508377.731         992.506
  22667306.140          34.688     1260451.378       -2770.351
  22304128.565          42.409     1315178.350       -2950.280
 17 07 17 11 54 02.000298   0  8G16G18G20G21G25G26G29G31
  21841604.563          22.141    -1122896.361        2367.727
  23859324.122          26.468    -1184444.645        2538.486
  22996881.182          26.686     -229066.834         349.660
  20963891.692          36.316       18226.308        -168.553
  24898553.181          13.852      238013.017       -3504.134
  20625899.978          39.833     -509370.421         992.511
  22667817.287          33.581     1263221.734       -2770.066
  22304696.072          41.632     1318128.482       -2950.068
 17 07 17 11 54 03.000298   0  8G16G18G20G21G25G26G29G31
  21841076.803          20.054    -1125263.096        2363.810
  23858772.381          26.566    -1186982.535        2537.686
  22996738.954          24.530     -229415.828         348.479
  20963853.790          37.258       18395.848        -170.044
  24899165.531          13.602      241519.578       -3501.973
  20625635.432          37.929     -510362.660         991.975
  22668289.935          31.238     1265992.178       -2770.517
  22305179.810          41.185     1321079.116       -2950.785
 17 07 17 11 54 04.000298   0  8G16G18G20G21G25G26G29G31
  21840642.402          25.658    -1127629.222        2365.554
  23858285.817          25.987    -1189520.434        2538.041
  22996694.582          28.339     -229764.462         348.274
  20963882.273          35.866       18565.572        -169.807
  24899819.980          13.237      245020.950       -3502.022
  20625452.859          36.625     -511354.542         991.661
  22668816.971          32.769     1268762.508       -2770.611
  22305738.924          43.622     1324029.935       -2950.871
 17 07 17 11 54 05.000298   0  8G16G18G20G21G25G26G29G31
  21840199.611          24.198    -1129994.945        2363.370
  23857771.075          24.507    -1192058.346        2536.781
  22996626.230          29.590     -230112.535         347.813
  20963915.847          35.414       18735.771        -170.330
  24900525.091          14.212      248527.837       -3503.266
  20625260.096          36.473     -512346.048         991.160
  22669341.005          32.904     1271532.800       -2770.040
  22306305.231          43.795     1326981.009       -2951.195
 17 07 17 11 54 06.000298   0  8G16G18G20G21G25G26G29G31
  21839744.400          20.479    -1132354.313        2360.839
  23857246.613          26.623    -1194596.165        2537.386
  22996497.796          28.602     -230460.043         346.731
  20963880.048          35.644       18906.515        -171.037
  24901121.552          14.662      252027.640       -3504.139
  20624997.950          35.974     -513337.155         990.706
  22669789.371          34.288     1274303.353       -2770.743
  22306795.866          44.162     1329932.431       -2951.633
 17 07 17 11 54 07.000298   0  8G16G18G20G21G25G26G29G31
  21839232.952          21.353    -1134718.048        2361.941
  23856760.048          28.075    -1197133.828        2537.461
  22996429.444          29.815     -230806.910         346.508
  20963905.831          35.076       19077.742        -171.387
  24901789.791          14.460      255534.746       -3503.838
  20624812.977          36.807     -514327.829         990.497
  22670324.198          35.650     1277073.988       -2770.394
  22307357.977          43.633     1332884.235       -2951.943
 17 07 17 11 54 08.000298   0  8G16G18G20G21G25G26G29G31
  21838759.279          21.869    -1137083.468        2368.748
  23856272.284          26.387    -1199671.448        2537.287
  22996368.586          30.614     -231153.219         345.508
  20963947.799          34.284       19249.463        -172.317
  24902455.329          15.116      259037.800       -3503.880
  20624624.410          37.166     -515317.982         989.653
  22670850.335          35.311     1279844.739       -2771.398
  22307916.789          42.828     1335836.381       -2952.587
 17 07 17 11 54 09.000298   0  8G16G18G20G21G25G26G29G31
  21838234.219          23.606    -1139448.615        2365.872
  23855695.062          22.102    -1202209.525        2540.258
  22996224.857          31.134     -231499.054         346.015
  20963897.909          35.273       19421.655        -172.730
  24903064.080          14.753      262543.132       -3504.756
  20624369.458          38.152     -516307.778         989.453
  22671297.502          37.121     1282615.386       -2770.781
  22308407.424          42.746     1338788.796       -2952.787
 17 07 17 11 54 10.000298   0  8G16G18G20G21G25G26G29G31
  21837818.407          22.591    -1141813.565        2363.874
  23855252.267          22.549    -1204746.646        2536.844
  22996163.699          31.479     -231844.212         344.773
  20963938.083          35.328       19594.374        -172.983
  24903678.358          14.120      266048.690       -3503.929
  20624178.793          37.056     -517297.142         989.164
  22671831.731          35.987     1285386.243       -2770.818
  22308969.234          42.204     1341741.544       -2952.744
 17 07 17 11 54 11.000297   0  8G16G18G20G21G25G26G29G31
  21837283.749          27.449    -1144178.118        2364.282
  23854700.822          24.073    -1207284.071        2537.756
  22996019.076          32.265     -232188.676         344.253
  20963898.685          35.452       19767.601        -173.526
  24904368.052          14.062      269554.362       -3504.415
  20623928.339          38.487     -518286.006         988.747
  22672284.892          36.336     1288157.140       -2771.004
  22309461.670          43.040     1344694.754       -2953.196
 17 07 17 11 54 12.000297   0  8G16G18G20G21G25G26G29G31
  21836842.455          29.078    -1146542.569        2364.634
  23854235.543          19.627    -1209823.586        2537.584
  22995963.916          32.172     -232532.751         343.773
  20963928.364          34.751       19941.300        -174.236
  24905062.073          14.891      273056.404       -3505.876
  20623733.476          38.108     -519274.555         988.217
  22672810.130          37.111     1290928.061       -2771.380
  22310024.379          42.803     1347648.154       -2953.719
 17 07 17 11 54 13.000297   0  8G16G18G20G21G25G26G29G31
  21836387.070          26.691    -1148906.607        2364.341
  23853746.282          19.729    -1212364.302        2538.128
  22995898.259          30.711     -232876.137         343.141
  20963966.737          35.802       20115.409        -173.968
  24905711.723          15.661      276561.180       -3503.074
  20623544.905          37.549     -520262.610         988.005
  22673336.865          36.788     1293699.099       -2770.863
  22310584.090          42.981     1350601.880       -2953.680
 17 07 17 11 54 14.000297   0  8G16G18G20G21G25G26G29G31
  21835862.311          26.892    -1151270.421        2363.647
  23853179.552          25.524    -1214901.664        2537.219
  22995754.832          31.006     -233218.840         342.616
  20963927.338          36.462       20290.193        -175.053
  24906303.386          15.370      280063.543       -3503.660
  20623281.564          38.962     -521250.135         987.119
  22673794.222          39.106     1296470.365       -2771.301
  22311075.628          43.028     1353556.063       -2954.456
 17 07 17 11 54 15.000297   0  8G16G18G20G21G25G26G29G31
  21835420.114          29.173    -1153633.900        2363.563
  23852693.886          24.271    -1217438.788        2537.887
  22995693.376          31.230     -233561.101         341.749
  20963963.011          36.214       20465.498        -175.466
  24906949.441          15.424      283572.649       -3504.657
  20623087.897          37.357     -522237.311         986.927
  22674322.157          39.591     1299241.581       -2771.206
  22311640.435          43.477     1356510.519       -2954.452
 17 07 17 11 54 16.000297   0  8G16G18G20G21G25G26G29G31
  21834956.636          28.745    -1155997.078        2363.292
  23852223.210          21.218    -1219974.388        2540.999
  22995631.018          29.513     -233902.522         340.529
  20963995.390          35.192       20641.282        -176.367
  24907587.996          15.316      287077.737       -3505.174
  20622905.922          39.263     -523224.083         986.325
  22674849.192          39.837     1302012.904       -2771.762
  22312200.748          43.982     1359465.392       -2955.056
 17 07 17 11 54 17.000297   0  8G16G18G20G21G25G26G29G31
  21834448.063          29.695    -1158360.035        2363.164
  23851674.767          25.548    -1222511.455        2537.551
  22995504.081          27.815     -234243.505         340.735
  20963951.795          33.355       20817.497        -176.214
  24908194.352          15.805      290582.819       -3505.457
  20622644.077          39.944     -524210.267         986.235
  22675305.049          38.924     1304784.376       -2771.487
  22312690.484          44.379     1362420.660       -2955.441
 17 07 17 11 54 18.000297   0  8G16G18G20G21G25G26G29G31
  21833990.278          31.063    -1160722.719        2362.597
  23851173.514          22.526    -1225049.801        2534.365
  22995438.424          25.753     -234583.976         340.569
  20963990.168          33.579       20994.434        -177.064
  24908866.788          15.871      294088.029       -3505.250
  20622455.806          39.534     -525195.978         985.570
  22675824.891          39.444     1307556.103       -2771.472
  22313252.891          44.637     1365376.332       -2955.594
 17 07 17 11 54 19.000297   0  8G16G18G20G21G25G26G29G31
  21833480.806          28.793    -1163085.205        2362.046
  23850608.580          19.064    -1227586.629        2534.503
  22995283.008          27.074     -234923.583         338.798
  20963950.770          33.762       21171.855        -177.742
  24909439.866          15.835      297591.991       -3505.884
  20622195.462          39.813     -526181.234         984.789
  22676288.543          39.014     1310327.898       -2771.847
  22313747.426          43.840     1368332.357       -2956.314
 17 07 17 11 54 20.000297   0  8G16G18G20G21G25G26G29G31
  21833019.427          27.462    -1165447.507        2362.321
  23850158.592          22.665    -1230123.286        2537.218
  22995210.459          27.952     -235262.739         338.371
  20963987.044          34.355       21349.670        -177.901
  24910126.990          15.387      301098.816       -3504.915
  20622016.187          39.785     -527166.148         984.781
  22676815.278          36.800     1313099.547       -2771.773
  22314311.033          43.425     1371288.624       -2956.319
 17 07 17 11 54 21.000297   0  8G16G18G20G21G25G26G29G31
  21832575.135          26.983    -1167809.365        2361.919
  23849679.522          18.435    -1232659.039        2538.120
  22995153.798          29.195     -235601.176         337.851
  20964013.128          32.408       21528.196        -178.855
  24910787.734          14.775      304603.534       -3504.999
  20621821.622          39.585     -528150.428         983.901
  22677337.816          35.750     1315871.644       -2772.498
  22314873.746          43.320     1374245.410       -2956.953
 17 07 17 11 54 22.000296   0  8G16G18G20G21G25G26G29G31
  21832043.475          28.437    -1170170.886        2361.583
  23849118.786          23.374    -1235188.479        2535.899
  22995010.370          29.293     -235939.052         337.699
  20963978.228          32.762       21707.269        -179.426
  24911411.775          14.781      308111.593       -3505.134
  20621567.272          38.645     -529134.269         983.651
  22677799.073          36.857     1318643.788       -2772.571
  22315366.178          43.430     1377202.552       -2957.449
 17 07 17 11 54 23.000296   0  8G16G18G20G21G25G26G29G31
  21831593.486          27.600    -1172532.061        2361.609
  23848628.325          25.624    -1237724.632        2536.181
  22994957.309          30.516     -236276.063         336.854
  20964012.103          33.154       21886.852        -180.070
  24912013.158          14.966      311613.221       -3507.556
  20621386.797          38.795     -530117.595         983.277
  22678318.614          34.483     1321416.312       -2773.049
  22315927.691          43.244     1380160.173       -2957.797
 17 07 17 11 54 24.000296   0  8G16G18G20G21G25G26G29G31
  21831135.405          28.171    -1174893.031        2360.638
  23848145.360          26.680    -1240260.580        2535.524
  22994882.360          32.995     -236612.570         336.478
  20964043.579          33.912       22067.057        -180.321
  24912669.103          14.816      315122.818       -3506.248
  20621198.527          38.789     -531100.492         982.902
  22678844.450          33.558     1324188.484       -2772.339
  22316487.102          43.513     1383118.057       -2957.986
 17 07 17 11 54 25.000296   0  8G16G18G20G21G25G26G29G31
  21830614.839          27.907    -1177253.825        2360.968
  23847599.910          26.741    -1242796.355        2535.418
  22994764.414          31.560     -236948.437         336.082
  20964008.678          34.156       22247.640        -180.775
  24913271.262          14.596      318629.436       -3508.151
  20620936.983          38.468     -532082.835         981.898
  22679294.910          31.425     1326961.212       -2772.470
  22316976.838          43.221     1386076.386       -2958.588
 17 07 17 11 54 26.000296   0  8G16G18G20G21G25G26G29G31
  21830181.642          29.550    -1179614.322        2360.405
  23847094.159          27.031    -1245332.159        2535.445
  22994675.077          29.733     -237283.788         334.786
  20964043.456          33.351       22428.846        -181.343
  24914021.342          14.474      322136.005       -3507.785
  20620752.909          38.734     -533064.811         981.737
  22679830.641          29.632     1329733.818       -2772.716
  22317541.946          43.777     1389035.069       -2958.732
 17 07 17 11 54 27.000296   0  7G16G18G20G21G26G29G31
  21829580.604          28.293    -1181974.653        2360.342
  23846473.337          24.553    -1247868.035        2533.642
  22994476.066          30.086     -237618.536         334.108
  20963935.579          33.521       22610.526        -182.270
  20620423.489          38.388     -534046.327         981.028
  22680205.729          30.984     1332506.482       -2772.922
  22317962.304          43.141     1391994.002       -2959.214
 17 07 17 11 54 28.000296   0  7G16G18G20G21G26G29G31
  21829120.123          26.235    -1184334.616        2359.792
  23846011.656          25.502    -1250403.645        2535.836
  22994405.014          27.757     -237952.904         334.239
  20963966.758          33.575       22792.591        -182.228
  20620240.911          38.368     -535027.545         981.004
  22680735.461          32.059     1335279.193       -2772.797
  22318519.921          42.063     1394953.210       -2959.316
 17 07 17 11 54 29.000296   0  7G16G18G20G21G26G29G31
  21828696.816          25.955    -1186694.326        2359.594
  23845511.005          26.367    -1252939.246        2535.455
  22994318.373          25.763     -238286.480         333.034
  20964006.628          32.120       22975.231        -183.138
  20620047.545          37.654     -536008.277         980.672
  22681257.100          31.253     1338052.069       -2772.843
  22319091.922          42.255     1397912.844       -2959.939
 17 07 17 11 54 30.000295   0  7G16G18G20G21G26G29G31
  21828175.351          27.250    -1189054.019        2359.880
  23844953.266          27.164    -1255474.820        2535.605
  22994203.128          24.404     -238619.056         333.589
  20963970.528          32.897       23158.209        -183.169
  20619794.696          38.265     -536988.652         980.200
  22681709.362          30.488     1340824.770       -2772.477
  22319582.260          42.353     1400872.657       -2960.145
 17 07 17 11 54 31.000295   0  7G16G18G20G21G26G29G31
  21827720.568          28.324    -1191413.449        2359.545
  23844463.704          26.742    -1258010.288        2535.312
  22994171.050          27.593     -238951.631         332.502
  20964001.406          34.197       23341.727        -183.684
  20619601.631          38.671     -537968.588         979.720
  22682256.186          29.985     1343597.652       -2772.642
  22320141.073          42.508     1403832.846       -2960.167
 17 07 17 11 54 32.000295   0  7G16G18G20G21G26G29G31
  21827266.081          29.508    -1193772.662        2359.137
  23843991.231          28.360    -1260545.739        2535.702
  22994088.606          27.092     -239283.552         331.444
  20964046.977          34.528       23525.718        -184.182
  20619421.754          39.836     -538948.070         979.251
  22682773.328          30.638     1346370.657       -2773.468
  22320705.578          41.773     1406793.412       -2960.722
 17 07 17 11 54 33.000295   0  7G16G18G20G21G26G29G31
  21826756.910          28.107    -1196131.711        2359.546
  23843437.091          29.186    -1263081.175        2535.541
  22993939.485          28.173     -239614.936         331.240
  20964004.577          34.337       23710.195        -184.688
  20619158.413          40.332     -539927.231         979.261
  22683212.995          27.679     1349143.582       -2772.865
  22321200.711          43.076     1409754.186       -2960.880
 17 07 17 11 54 34.000295   0  7G16G18G20G21G26G29G31
  21826314.115          25.618    -1198490.610        2358.440
  23842970.315          30.727    -1265616.560        2535.326
  22993894.215          30.720     -239945.866         330.556
  20964046.248          33.458       23895.022        -185.168
  20618972.839          40.689     -540906.010         978.413
  22683762.214          27.722     1351916.558       -2773.550
  22321764.920          43.985     1412715.209       -2961.410
 17 07 17 11 54 35.000295   0  7G16G18G20G21G26G29G31
  21825877.319          24.871    -1200848.823        2357.296
  23842455.272          29.166    -1268151.823        2535.590
  22993836.058          32.302     -240276.153         330.165
  20964075.329          33.431       24080.543        -186.010
  20618788.469          40.181     -541884.226         977.802
  22684284.154          28.377     1354689.654       -2773.128
  22322326.132          43.352     1415676.678       -2961.623
 17 07 17 11 54 36.000295   0  7G16G18G20G21G26G29G31
  21825347.159          25.868    -1203207.406        2358.349
  23841931.708          27.723    -1270687.175        2535.420
  22993695.928          34.098     -240605.844         329.134
  20964045.524          33.701       24266.382        -185.853
  20618527.221          39.576     -542862.218         977.899
  22684745.111          30.869     1357462.851       -2773.350
  22322821.265          43.645     1418638.372       -2961.818
 17 07 17 11 54 37.000295   0  7G16G18G20G21G26G29G31
  21824892.075          29.629    -1205565.427        2358.063
  23841437.047          27.055    -1273222.271        2535.176
  22993626.376          34.081     -240934.981         328.374
  20964073.104          32.285       24452.772        -186.806
  20618343.152          39.693     -543839.606         977.225
  22685257.754          30.369     1360236.146       -2773.122
  22323386.975          44.231     1421600.512       -2962.429
 17 07 17 11 54 38.000295   0  7G16G18G20G21G26G29G31
  21824371.810          28.230    -1207923.141        2357.670
  23840882.606          29.033    -1275757.219        2535.057
  22993503.937          35.316     -241263.485         328.186
  20964037.606          32.224       24639.799        -187.472
  20618088.501          39.498     -544816.524         976.858
  22685730.402          34.140     1363009.654       -2773.563
  22323877.007          44.222     1424562.982       -2962.508
 17 07 17 11 54 39.000295   0  7G16G18G20G21G26G29G31
  21823950.300          25.298    -1210280.649        2357.037
  23840410.132          27.772    -1278292.161        2535.008
  22993444.876          35.035     -241591.424         327.647
  20964067.586          31.866       24827.293        -187.740
  20617901.129          41.627     -545793.035         976.220
  22686249.045          33.601     1365783.195       -2774.061
  22324441.216          44.115     1427525.824       -2963.151
 17 07 17 11 54 40.000295   0  7G16G18G20G21G26G29G31
  21823492.816          24.625    -1212638.133        2356.581
  23839932.563          25.678    -1280827.139        2535.843
  22993385.218          34.904     -241918.718         327.188
  20964105.658          32.775       25015.179        -188.215
  20617720.057          41.390     -546769.138         975.814
  22686778.475          30.311     1368556.869       -2773.373
  22325003.929          43.138     1430488.956       -2963.238
 17 07 17 11 54 41.000294   0  7G16G18G20G21G26G29G31
  21822945.569          25.359    -1214995.395        2357.327
  23839362.836          25.127    -1283361.972        2535.049
  22993255.882          35.827     -242245.648         326.591
  20964068.358          32.643       25203.582        -188.544
  20617455.215          41.002     -547744.926         975.465
  22687237.935          31.940     1371330.198       -2773.459
  22325492.762          43.838     1433452.273       -2963.356
 17 07 17 11 54 42.000294   0  7G16G18G20G21G26G29G31
  21822491.086          24.685    -1217353.622        2362.694
  23838885.563          25.104    -1285896.883        2535.726
  22993186.927          36.316     -242572.049         326.093
  20964107.630          32.704       25392.212        -189.438
  20617269.641          40.868     -548720.457         975.284
  22687759.570          32.896     1374103.743       -2773.410
  22326063.271          43.966     1436415.854       -2963.670
 17 07 17 11 54 43.000294   0  7G16G18G20G21G26G29G31
  21822063.879          25.332    -1219714.592        2356.308
  23838390.906          25.209    -1288431.744        2534.675
  22993129.071          33.800     -242897.797         325.479
  20964137.011          33.510       25581.448        -189.368
  20617088.268          40.408     -549695.399         974.807
  22688303.995          32.946     1376877.560       -2773.611
  22326622.681          43.842     1439379.860       -2964.011
 17 07 17 11 54 44.000294   0  7G16G18G20G21G26G29G31
  21821540.918          26.009    -1222071.312        2355.484
  23837828.970          25.963    -1290966.555        2534.678
  22992998.234          31.525     -243222.880         324.496
  20964111.102          33.994       25771.238        -189.999
  20616827.622          40.887     -550669.924         974.320
  22688752.959          32.760     1379651.128       -2773.353
  22327117.216          42.717     1442344.182       -2964.464
 17 07 17 11 54 45.000294   0  7G16G18G20G21G26G29G31
  21821095.723          26.529    -1224427.869        2356.533
  23837360.096          26.342    -1293501.071        2534.508
  22992927.482          29.317     -243547.467         324.119
  20964138.983          35.207       25961.512        -190.794
  20616646.249          41.231     -551644.038         973.858
  22689268.002          30.408     1382424.862       -2773.227
  22327679.327          40.952     1445308.824       -2965.242
 17 07 17 11 54 46.000294   0  7G16G18G20G21G26G29G31
  21820570.965          28.920    -1226783.653        2355.160
  23836797.257          27.564    -1296035.427        2533.957
  22992796.950          32.520     -243871.423         323.562
  20964110.077          34.352       26152.374        -191.564
  20616389.500          40.967     -552617.629         973.161
  22689733.456          30.268     1385198.859       -2774.512
  22328169.660          42.675     1448273.872       -2965.659
 17 07 17 11 54 47.000294   0  7G16G18G20G21G26G29G31
  21820149.154          25.071    -1229139.677        2357.700
  23836334.080          28.773    -1298569.888        2534.556
  22992738.487          32.609     -244194.786         323.576
  20964150.849          33.984       26343.590        -191.164
  20616203.629          41.802     -553590.855         973.181
  22690265.286          29.881     1387972.810       -2773.550
  22328738.664          44.094     1451239.200       -2965.257
 17 07 17 11 54 48.000294   0  7G16G18G20G21G26G29G31
  21819711.760          24.046    -1231495.473        2356.661
  23835852.912          27.305    -1301104.437        2534.889
  22992665.637          31.357     -244517.711         322.607
  20964183.228          34.126       26535.250        -191.825
  20616015.062          40.998     -554563.746         972.773
  22690773.733          29.866     1390746.824       -2774.382
  22329296.879          43.781     1454204.787       -2965.784
 17 07 17 11 54 49.000294   0  7G16G18G20G21G26G29G31
  21819153.117          23.004    -1233850.540        2352.683
  23835297.271          24.947    -1303638.332        2534.421
  22992530.005          29.355     -244839.899         321.851
  20964155.522          33.295       26727.386        -192.418
  20615761.610          41.953     -555536.167         972.491
  22691246.080          33.228     1393521.061       -2774.180
  22329788.116          43.856     1457170.671       -2965.872
 17 07 17 11 54 50.000294   0  7G16G18G20G21G26G29G31
  21818718.720          23.207    -1236206.731        2359.301
  23834812.207          26.200    -1306172.769        2534.200
  22992474.544          30.350     -245161.684         321.626
  20964183.102          33.742       26920.110        -192.943
  20615573.039          42.008     -556508.150         971.741
  22691774.617          35.721     1396295.190       -2774.218
  22330357.721          43.791     1460136.888       -2966.358
 17 07 17 11 54 51.000294   0  7G16G18G20G21G26G29G31
  21818287.320          21.977    -1238563.576        2357.259
  23834320.246          27.796    -1308706.739        2534.170
  22992403.194          31.673     -245482.846         321.701
  20964223.573          34.702       27113.420        -193.474
  20615394.065          41.901     -557479.619         971.189
  22692307.647          35.599     1399069.500       -2774.014
  22330923.427          44.021     1463103.550       -2966.619
 17 07 17 11 54 52.000293   0  7G16G18G20G21G26G29G31
  21817752.065          22.311    -1240918.072        2351.604
  23833776.000          29.494    -1311241.002        2534.233
  22992269.661          28.620     -245798.666         320.600
  20964186.273          36.015       27306.939        -193.756
  20615138.215          40.390     -558450.900         971.179
  22692763.804          34.659     1401843.655       -2774.165
  22331414.062          42.993     1466070.327       -2966.801
 17 07 17 11 54 53.000293   0  7G16G18G20G21G26G29G31
  21817293.980          25.802    -1243272.590        2354.811
  23833297.528          30.652    -1313775.046        2534.239
  22992205.505          30.156     -246118.854         319.901
  20964226.448          34.407       27501.119        -194.861
  20614949.944          40.878     -559421.664         970.374
  22693298.937          35.367     1404617.928       -2773.897
  22331980.670          43.288     1469037.519       -2967.406
 17 07 17 11 54 54.000293   0  7G16G18G20G21G26G29G31
  21816781.209          28.638    -1245626.849        2354.104
  23832751.485          29.786    -1316309.058        2534.021
  22992068.377          30.294     -246438.338         319.334
  20964193.646          36.427       27695.725        -194.902
  20614690.202          39.714     -560391.997         970.055
  22693753.895          36.040     1407392.431       -2774.173
  22332471.606          44.489     1472004.993       -2967.835
 17 07 17 11 54 55.000293   0  7G16G18G20G21G26G29G31
  21816310.237          30.026    -1247981.038        2353.870
  23832249.032          28.666    -1318843.145        2534.284
  22992024.904          33.604     -246757.300         318.679
  20964226.623          35.958       27890.655        -194.972
  20614506.128          39.734     -561362.096         970.135
  22694286.026          35.429     1410166.811       -2774.655
  22333037.612          43.801     1474972.669       -2967.687
 17 07 17 11 54 56.000293   0  7G16G18G20G21G26G29G31
  21815870.142          29.479    -1250335.095        2354.034
  23831774.460          29.791    -1321377.080        2533.632
  22991955.055          32.657     -247075.731         318.193
  20964263.796          36.613       28086.067        -195.787
  20614325.654          39.933     -562331.638         969.575
  22694804.668          35.593     1412941.159       -2774.331
  22333606.018          41.119     1477940.717       -2968.069
 17 07 17 11 54 57.000293   0  7G16G18G20G21G26G29G31
  21815357.970          29.182    -1252688.627        2353.397
  23831223.613          32.015    -1323910.923        2533.569
  22991835.011          32.604     -247393.533         317.582
  20964235.487          34.311       28282.177        -196.646
  20614067.404          39.720     -563300.706         968.807
  22695269.520          33.749     1415715.768       -2774.923
  22334094.258          43.729     1480909.199       -2968.809
 17 07 17 11 54 58.000293   0  7G16G18G20G21G26G29G31
  21814892.394          28.626    -1255041.951        2353.283
  23830746.647          32.604    -1326444.718        2534.033
  22991780.147          32.514     -247710.609         316.590
  20964263.368          33.606       28478.721        -197.180
  20613882.135          40.839     -564269.304         968.109
  22695797.455          33.185     1418490.470       -2774.352
  22334657.267          43.885     1483878.016       -2969.078
 17 07 17 11 54 59.000293   0  7G16G18G20G21G26G29G31
  21814455.894          26.876    -1257395.009        2352.685
  23830264.279          31.949    -1328978.311        2533.375
  22991720.489          31.290     -248027.078         316.055
  20964310.139          34.227       28675.672        -197.516
  20613700.762          40.706     -565237.553         967.834
  22696319.094          34.298     1421265.245       -2775.103
  22335221.176          41.116     1486847.128       -2969.546
 17 07 17 11 55 00.000293   0  7G16G18G20G21G26G29G31
  21813929.931          29.948    -1259748.167        2353.255
  23829702.940          32.268    -1331512.094        2534.183
  22991578.563          31.507     -248343.238         316.178
  20964264.145          33.431       28873.144        -197.667
  20613445.513          41.022     -566205.426         967.736
  22696796.536          31.798     1424039.988       -2774.969
  22335719.903          42.032     1489816.400       -2969.357
 17 07 17 11 55 01.000293   0  7G16G18G20G21G26G29G31
  21813491.634          30.149    -1262100.904        2352.803
  23829219.975          33.836    -1334045.713        2533.669
  22991526.700          32.468     -248658.747         315.021
  20964311.810          34.620       29070.984        -198.138
  20613262.639          41.297     -567172.939         967.300
  22697300.490          30.288     1426814.718       -2775.046
  22336283.514          42.449     1492786.020       -2969.786
 17 07 17 11 55 02.000293   0  7G16G18G20G21G26G29G31
  21812964.175          29.858    -1264453.585        2352.395
  23828669.730          33.719    -1336579.290        2533.307
  22991394.367          33.394     -248973.688         314.441
  20964272.713          32.769       29269.389        -198.830
  20613001.392          41.197     -568139.982         966.756
  22697768.937          31.072     1429589.631       -2775.141
  22336776.849          43.498     1495755.984       -2970.235
 17 07 17 11 55 03.000293   0  7G16G18G20G21G26G29G31
  21812526.480          30.284    -1266805.837        2352.103
  23828192.764          32.498    -1339112.808        2533.318
  22991335.904          33.328     -249288.119         314.109
  20964299.992          31.962       29468.176        -199.058
  20612822.418          39.208     -569106.634         966.372
  22698283.980          31.598     1432364.451       -2775.010
  22337342.856          42.921     1498726.263       -2970.342
 17 07 17 11 55 04.000293   0  7G16G18G20G21G26G29G31
  21812081.888          30.964    -1269157.991        2351.954
  23827700.205          33.609    -1341646.246        2533.079
  22991271.452          33.965     -249601.956         313.485
  20964345.860          33.358       29667.499        -199.600
  20612641.642          39.411     -570072.900         965.793
  22698811.317          36.367     1435139.407       -2775.013
  22337901.970          41.454     1501696.751       -2970.719
 17 07 17 11 55 05.000292   0  7G16G18G20G21G26G29G31
  21811483.550          29.750    -1271509.802        2351.554
  23827071.587          32.698    -1344179.616        2533.046
  22991065.544          33.137     -249915.202         313.178
  20964243.384          33.739       29867.318        -200.279
  20612312.518          40.393     -571038.765         965.605
  22699200.195          36.777     1437914.454       -2774.982
  22338330.722          42.230     1504667.682       -2971.104
 17 07 17 11 55 06.000292   0  7G16G18G20G21G26G29G31
  21811034.761          28.697    -1273861.393        2351.041
  23826594.319          31.470    -1346712.940        2533.278
  22991011.278          34.004     -250227.797         312.604
  20964280.557          35.017       30067.630        -200.652
  20612130.844          38.067     -572004.114         964.952
  22699723.034          34.880     1440689.727       -2774.995
  22338892.531          40.491     1507639.000       -2971.430
 17 07 17 11 55 07.000292   0  7G16G18G20G21G26G29G31
  21810600.063          28.367    -1276212.765        2352.015
  23826101.159          30.546    -1349246.084        2533.121
  22990940.827          32.259     -250539.697         311.040
  20964329.723          35.182       30268.555        -201.304
  20611944.074          38.463     -572968.898         964.371
  22700254.266          36.121     1443465.085       -2775.639
  22339459.441          41.028     1510610.620       -2971.988
 17 07 17 11 55 08.000292   0  7G16G18G20G21G26G29G31
  21810064.507          26.969    -1278563.699        2350.464
  23825554.513          30.483    -1351779.110        2533.129
  22990824.085          31.452     -250851.099         311.181
  20964287.027          35.935       30469.994        -201.544
  20611686.125          39.658     -573933.250         964.282
  22700702.331          33.223     1446240.464       -2775.506
  22339954.870          40.920     1513582.673       -2972.116
 17 07 17 11 55 09.000292   0  7G16G18G20G21G26G29G31
  21809604.925          27.142    -1280914.449        2350.176
  23825071.845          30.440    -1354311.891        2532.956
  22990751.536          30.760     -251161.843         310.509
  20964325.099          36.302       30672.016        -202.426
  20611501.755          39.776     -574897.099         963.610
  22701226.667          32.865     1449016.115       -2775.720
  22340522.377          40.974     1516555.124       -2972.832
 17 07 17 11 55 10.000292   0  7G16G18G20G21G26G29G31
  21809164.530          27.548    -1283264.985        2351.140
  23824600.274          29.805    -1356844.628        2532.930
  22990697.571          29.588     -251471.905         310.030
  20964370.369          36.160       30874.547        -202.752
  20611320.382          40.447     -575860.469         962.807
  22701750.706          31.424     1451792.144       -2776.927
  22341085.688          41.887     1519527.988       -2973.548
 17 07 17 11 55 11.000292   0  7G16G18G20G21G26G29G31
  21808674.244          25.125    -1285611.934        2349.798
  23824035.939          26.978    -1359377.060        2531.664
  22990569.133          26.639     -251780.702         309.467
  20964336.367          35.900       31077.657        -203.214
  20611062.433          40.435     -576823.373         962.883
  22702218.254          31.253     1454568.507       -2775.811
  22341577.823          41.869     1522501.148       -2973.234
 17 07 17 11 55 12.000292   0  7G16G18G20G21G26G29G31
  21808192.478          27.789    -1287959.587        2351.298
  23823570.358          29.669    -1361909.735        2532.404
  22990518.767          30.502     -252089.587         308.532
  20964375.940          37.257       31281.188        -203.500
  20610881.356          40.375     -577785.943         962.497
  22702762.679          29.714     1457344.082       -2776.059
  22342146.229          40.871     1525474.648       -2973.918
 17 07 17 11 55 13.000291   0  7G16G18G20G21G26G29G31
  21807684.202          27.225    -1290309.322        2348.668
  23823011.423          29.603    -1364442.158        2532.086
  22990381.037          33.765     -252397.887         307.983
  20964341.938          38.044       31485.249        -204.388
  20610624.912          37.797     -578748.086         961.951
  22703198.751          30.820     1460119.990       -2775.733
  22342638.360          40.691     1528448.352       -2974.068
 17 07 17 11 55 14.000291   0  7G16G18G20G21G26G29G31
  21807233.615          27.674    -1292658.925        2349.729
  23822530.853          30.424    -1366974.671        2532.554
  22990317.182          32.377     -252705.630         307.158
  20964377.314          37.983       31689.782        -204.800
  20610448.032          40.181     -579709.632         961.157
  22703729.983          31.237     1462896.083       -2776.470
  22343201.972          41.777     1531422.460       -2974.289
 17 07 17 11 55 15.000291   0  7G16G18G20G21G26G29G31
  21806788.722          28.707    -1295008.045        2348.497
  23822053.886          31.048    -1369506.879        2532.153
  22990258.126          32.337     -253012.664         306.571
  20964422.283          37.369       31894.838        -205.264
  20610263.361          41.060     -580670.831         961.047
  22704265.112          36.993     1465672.194       -2776.232
  22343776.075          41.654     1534396.962       -2974.651
 17 07 17 11 55 16.000291   0  7G16G18G20G21G26G29G31
  21806279.551          28.790    -1297357.084        2348.747
  23821498.843          31.996    -1372039.052        2531.907
  22990132.088          32.349     -253319.247         306.145
  20964384.983          37.743       32100.398        -205.841
  20610013.208          42.035     -581631.602         960.527
  22704723.071          38.047     1468448.370       -2776.239
  22344262.513          41.620     1537371.791       -2974.993
 17 07 17 11 55 17.000291   0  7G16G18G20G21G26G29G31
  21805819.070          29.025    -1299705.688        2348.290
  23821005.385          31.402    -1374571.226        2532.126
  22990079.920          33.754     -253625.089         305.494
  20964423.055          37.860       32306.506        -206.438
  20609828.837          42.093     -582591.837         959.978
  22705242.010          33.585     1471224.765       -2775.977
  22344834.815          41.748     1540346.965       -2975.414
 17 07 17 11 55 18.000291   0  7G16G18G20G21G26G29G31
  21805372.676          27.411    -1302053.991        2348.002
  23820522.717          30.752    -1377102.990        2531.546
  22990014.569          34.303     -253930.282         304.929
  20964465.625          37.558       32513.214        -206.826
  20609641.165          41.793     -583551.572         959.464
  22705766.350          31.767     1474001.366       -2776.568
  22345398.727          41.274     1543322.614       -2975.813
 17 07 17 11 55 19.000291   0  7G16G18G20G21G26G29G31
  21804858.706          25.916    -1304402.061        2348.022
  23819973.672          30.177    -1379634.805        2531.610
  22989894.525          33.235     -254234.912         304.216
  20964437.321          37.562       32720.411        -207.378
  20609384.716          41.763     -584510.854         958.945
  22706232.100          31.194     1476777.902       -2776.421
  22345895.954          40.753     1546298.555       -2976.099
 17 07 17 11 55 20.000291   0  7G16G18G20G21G26G29G31
  21804409.319          24.259    -1306749.889        2347.971
  23819480.516          30.109    -1382166.462        2531.440
  22989839.962          34.217     -254538.847         303.538
  20964470.599          37.364       32928.209        -208.219
  20609203.644          40.917     -585469.634         958.308
  22706750.141          30.169     1479554.790       -2777.513
  22346461.066          40.524     1549274.919       -2976.627
 17 07 17 11 55 21.000291   0  7G16G18G20G21G26G29G31
  21803889.652          29.124    -1309097.550        2347.251
  23818923.976          28.332    -1384698.161        2531.890
  22989708.226          33.243     -254842.306         303.366
  20964437.792          37.776       33136.429        -208.420
  20608952.291          42.237     -586428.065         958.219
  22707209.596          30.722     1482331.535       -2776.521
  22346959.793          41.420     1552251.553       -2976.657
 17 07 17 11 55 22.000291   0  7G16G18G20G21G26G29G31
  21803451.355          30.732    -1311444.972        2347.253
  23818448.505          28.339    -1387229.528        2531.248
  22989648.568          32.375     -255145.097         302.447
  20964479.764          37.420       33345.147        -209.047
  20608768.820          42.021     -587386.036         957.528
  22707739.629          30.165     1485108.551       -2777.662
  22347523.405          42.502     1555228.538       -2977.079
 17 07 17 11 55 23.000291   0  7G16G18G20G21G26G29G31
  21803011.260          30.110    -1313791.866        2346.512
  23817968.236          28.860    -1389760.923        2531.159
  22989600.903          32.717     -255447.231         301.823
  20964520.838          37.625       33554.419        -209.688
  20608586.247          41.511     -588343.470         957.341
  22708272.362          30.363     1487885.452       -2776.889
  22348092.408          42.277     1558205.961       -2977.581
 17 07 17 11 55 24.000290   0  7G16G18G20G21G26G29G31
  21802497.591          29.105    -1316138.656        2346.794
  23817413.795          29.262    -1392292.131        2530.804
  22989463.173          32.682     -255748.697         300.871
  20964492.529          37.170       33764.231        -210.385
  20608334.593          41.717     -589300.383         956.353
  22708725.222          34.089     1490662.686       -2777.399
  22348583.942          42.563     1561183.779       -2978.136
 17 07 17 11 55 25.000290   0  7G16G18G20G21G26G29G31
  21802041.608          28.924    -1318485.004        2346.682
  23816932.928          30.249    -1394823.150        2530.675
  22989406.211          32.397     -256049.592         300.860
  20964516.213          36.901       33974.651        -210.747
  20608157.115          42.010     -590256.836         956.250
  22709248.362          32.841     1493440.069       -2777.400
  22349152.649          41.514     1564161.915       -2978.166
 17 07 17 11 55 26.000290   0  7G16G18G20G21G26G29G31
  21801584.125          28.711    -1320831.187        2346.112
  23816449.661          31.818    -1397354.266        2531.040
  22989356.744          33.041     -256349.857         299.934
  20964565.379          36.694       34185.511        -211.271
  20607973.042          42.010     -591212.913         955.814
  22709764.605          29.510     1496217.419       -2777.611
  22349718.956          41.306     1567140.395       -2978.694
 17 07 17 11 55 27.000290   0  7G16G18G20G21G26G29G31
  21801066.555          28.335    -1323177.182        2345.919
  23815901.816          32.991    -1399885.126        2530.697
  22989219.917          33.241     -256649.548         299.327
  20964538.873          37.073       34396.872        -211.652
  20607718.395          41.321     -592168.475         955.150
  22710230.656          29.637     1498994.845       -2777.677
  22350216.488          41.787     1570119.226       -2979.228
 17 07 17 11 55 28.000290   0  7G16G18G20G21G26G29G31
  21800626.762          30.578    -1325522.608        2345.420
  23815429.343          33.151    -1402415.829        2530.846
  22989161.454          34.576     -256948.447         298.611
  20964579.645          37.024       34608.944        -212.423
  20607540.019          41.617     -593123.493         954.630
  22710760.689          29.738     1501772.645       -2777.546
  22350783.398          41.682     1573098.531       -2979.465
 17 07 17 11 55 29.000290   0  7G16G18G20G21G26G29G31
  21800103.199          31.153    -1327867.993        2345.220
  23814873.401          33.015    -1404946.414        2530.589
  22989035.416          34.167     -257246.869         298.069
  20964549.840          37.080       34821.398        -212.549
  20607283.872          41.937     -594078.115         954.425
  22711223.744          29.160     1504550.332       -2777.935
  22351276.427          41.786     1576078.119       -2979.740
 17 07 17 11 55 30.000290   0  7G16G18G20G21G26G29G31
  21799656.805          31.342    -1330212.996        2344.854
  23814384.140          32.821    -1407476.846        2530.402
  22988968.865          33.468     -257544.548         297.565
  20964591.511          36.929       35034.496        -213.157
  20607099.798          41.680     -595032.176         954.048
  22711752.276          30.138     1507328.408       -2778.436
  22351841.535          42.842     1579058.176       -2980.279
 17 07 17 11 55 31.000290   0  7G16G18G20G21G26G29G31
  21799210.415          30.400    -1332557.814        2344.481
  23813904.172          31.889    -1410007.342        2530.321
  22988908.605          33.919     -257841.760         296.912
  20964628.985          36.589       35248.010        -213.823
  20606917.823          41.667     -595985.881         953.405
  22712294.603          35.857     1510106.334       -2777.867
  22352408.445          42.404     1582038.403       -2980.535
 17 07 17 11 55 32.000290   0  7G16G18G20G21G26G29G31
  21798693.749          29.594    -1334902.302        2344.563
  23813358.726          30.069    -1412537.580        2530.801
  22988790.362          32.667     -258138.299         296.580
  20964602.178          37.648       35462.045        -214.164
  20606668.568          42.089     -596939.064         952.676
  22712750.459          33.617     1512884.516       -2777.614
  22352909.872          40.885     1585019.092       -2981.167
 17 07 17 11 55 33.000290   0  7G16G18G20G21G26G29G31
  21798241.361          30.555    -1337246.504        2343.843
  23812882.353          29.476    -1415067.681        2530.428
  22988723.210          32.198     -258434.187         295.506
  20964641.750          39.072       35676.648        -214.654
  20606484.198          41.899     -597891.879         952.648
  22713265.502          33.599     1515662.685       -2778.095
  22353473.183          39.279     1588000.122       -2981.262
 17 07 17 11 55 34.000290   0  7G16G18G20G21G26G29G31
  21797809.660          31.963    -1339590.563        2344.106
  23812399.688          28.338    -1417597.755        2530.492
  22988668.647          32.920     -258729.576         294.775
  20964679.225          39.207       35891.811        -215.549
  20606305.521          41.382     -598844.117         952.086
  22713806.328          35.358     1518441.020       -2778.326
  22354043.386          40.337     1590981.494       -2981.351
 17 07 17 11 55 35.000289   0  7G16G18G20G21G26G29G31
  21797286.097          31.598    -1341934.117        2343.500
  23811833.254          26.853    -1420127.534        2529.253
  22988536.012          33.477     -259024.082         294.076
  20964647.321          38.751       36107.549        -216.106
  20606044.575          40.522     -599795.837         951.544
  22714270.582          37.607     1521219.513       -2778.612
  22354537.620          42.509     1593963.304       -2982.044
 17 07 17 11 55 36.000289   0  7G16G18G20G21G26G29G31
  21796842.106          32.517    -1344277.589        2343.263
  23811349.691          26.309    -1422657.314        2529.083
  22988490.445          33.202     -259318.220         293.798
  20964687.793          38.044       36323.752        -216.743
  20605868.000          40.854     -600747.131         950.861
  22714791.323          38.761     1523998.011       -2778.591
  22355106.026          42.722     1596945.434       -2982.483
 17 07 17 11 55 37.000289   0  7G16G18G20G21G26G29G31
  21796399.909          30.415    -1346620.483        2342.833
  23810861.626          25.854    -1425187.055        2529.957
  22988419.694          31.888     -259611.502         292.800
  20964730.663          37.795       36540.599        -217.121
  20605686.623          40.106     -601697.815         950.338
  22715318.355          39.729     1526776.875       -2779.045
  22355675.034          43.097     1599928.048       -2982.834
 17 07 17 11 55 38.000289   0  7G16G18G20G21G26G29G31
  21795885.939          32.065    -1348963.117        2342.456
  23810326.371          26.460    -1427716.261        2528.885
  22988295.452          30.781     -259904.099         292.365
  20964697.259          37.439       36758.056        -217.631
  20605434.672          40.212     -602648.033         950.167
  22715785.309          39.072     1529555.845       -2778.969
  22356168.967          42.959     1602911.101       -2983.004
 17 07 17 11 55 39.000289   0  7G16G18G20G21G26G29G31
  21795435.950          30.518    -1351305.625        2342.203
  23809844.606          28.067    -1430245.695        2529.312
  22988250.483          31.913     -260196.250         291.856
  20964741.330          37.322       36975.869        -217.999
  20605255.698          40.988     -603597.894         949.858
  22716316.542          38.794     1532334.773       -2778.935
  22356737.970          42.718     1605894.375       -2983.374
 17 07 17 11 55 40.000289   0  7G16G18G20G21G26G29G31
  21794848.707          32.545    -1353648.020        2342.327
  23809227.082          27.629    -1432775.029        2529.222
  22988056.568          35.062     -260487.869         290.928
  20964640.948          37.611       37194.204        -218.514
  20604936.765          40.829     -604547.338         949.317
  22716702.122          37.172     1535113.779       -2778.954
  22357163.424          42.899     1608877.898       -2983.623
 17 07 17 11 55 41.000289   0  7G16G18G20G21G26G29G31
  21794402.016          31.529    -1355989.852        2341.501
  23808749.513          27.272    -1435304.188        2528.846
  22988010.098          35.006     -260778.774         290.473
  20964682.318          37.403       37413.070        -219.440
  20604752.094          40.998     -605496.262         948.383
  22717235.754          37.524     1537892.935       -2779.650
  22357731.533          41.604     1611861.908       -2984.492
 17 07 17 11 55 42.000289   0  7G16G18G20G21G26G29G31
  21793964.321          30.845    -1358331.406        2341.256
  23808276.141          25.966    -1437832.900        2528.529
  22987952.538          34.633     -261068.751         289.477
  20964720.992          37.114       37632.788        -220.223
  20604573.717          40.910     -606444.445         947.888
  22717757.393          37.788     1540672.516       -2779.591
  22358298.138          42.291     1614846.527       -2984.936
 17 07 17 11 55 43.000288   0  7G16G18G20G21G26G29G31
  21793441.958          30.306    -1360672.499        2341.046
  23807733.090          22.671    -1440361.428        2527.225
  22987815.109          34.879     -261358.105         288.997
  20964696.287          36.847       37853.017        -220.611
  20604320.266          40.973     -607392.154         947.666
  22718217.747          36.308     1543452.168       -2779.622
  22358792.973          42.744     1617831.509       -2985.092
 17 07 17 11 55 44.000288   0  7G16G18G20G21G26G29G31
  21792999.163          29.663    -1363013.365        2341.045
  23807204.257          25.594    -1442890.197        2528.882
  22987770.737          33.299     -261646.815         288.396
  20964738.856          37.664       38073.839        -221.273
  20604141.292          41.185     -608339.316         946.833
  22718752.278          34.036     1546232.091       -2780.190
  22359364.075          43.088     1620816.937       -2985.727
 17 07 17 11 55 45.000288   0  7G16G18G20G21G26G29G31
  21792569.861          28.699    -1365353.979        2340.211
  23806720.393          26.525    -1445418.598        2528.910
  22987719.176          31.445     -261934.997         288.610
  20964781.727          38.056       38295.118        -221.622
  20603960.818          41.792     -609286.060         946.409
  22719271.518          31.622     1549012.164       -2780.403
  22359929.183          42.350     1623802.630       -2985.652
 17 07 17 11 55 46.000288   0  7G16G18G20G21G26G29G31
  21792057.091          27.530    -1367694.223        2340.277
  23806180.339          25.485    -1447946.719        2528.561
  22987575.448          32.320     -262222.411         287.063
  20964752.821          38.012       38516.902        -222.046
  20603710.966          41.293     -610232.372         946.215
  22719730.974          31.412     1551792.163       -2780.210
  22360424.316          41.450     1626788.751       -2986.095
 17 07 17 11 55 47.000288   0  7G16G18G20G21G26G29G31
  21791599.306          28.933    -1370034.423        2340.317
  23805707.268          23.969    -1450474.849        2528.329
  22987516.688          31.046     -262508.288         282.090
  20964787.595          37.867       38739.196        -222.707
  20603530.788          39.209     -611178.282         945.750
  22720265.203          32.537     1554572.067       -2780.053
  22360996.321          39.750     1629775.094       -2986.521
 17 07 17 11 55 48.000288   0  7G16G18G20G21G26G29G31
  21791075.743          29.085    -1372374.311        2339.782
  23805164.518          24.329    -1453002.999        2527.716
  22987395.449          31.348     -262794.153         286.911
  20964761.987          37.874       38961.997        -223.129
  20603282.135          40.812     -612123.740         945.142
  22720715.964          38.283     1557352.366       -2780.498
  22361491.750          40.969     1632761.798       -2986.867
 17 07 17 11 55 49.000288   0  7G16G18G20G21G26G29G31
  21790642.541          29.857    -1374713.668        2339.220
  23804680.951          23.884    -1455531.114        2528.041
  22987339.385          29.222     -263079.921         285.392
  20964807.257          36.898       39185.476        -223.837
  20603094.764          41.570     -613068.520         944.514
  22721251.695          36.122     1560132.762       -2780.510
  22362062.259          40.926     1635749.021       -2987.407
 17 07 17 11 55 50.000288   0  7G16G18G20G21G26G29G31
  21790177.266          30.715    -1377052.909        2339.053
  23804195.591          27.971    -1458058.915        2527.645
  22987289.923          30.955     -263364.941         285.166
  20964845.931          38.207       39409.353        -223.991
  20602912.492          38.057     -614012.993         944.034
  22721769.735          35.950     1562913.361       -2780.503
  22362626.468          41.025     1638736.533       -2987.323
 17 07 17 11 55 51.000288   0  7G16G18G20G21G26G29G31
  21789678.583          28.620    -1379392.009        2338.657
  23803642.345          26.954    -1460586.576        2527.131
  22987167.479          32.403     -263649.304         284.238
  20964816.423          39.041       39633.805        -224.613
  20602665.938          35.626     -614956.873         943.919
  22722227.096          37.369     1565693.938       -2780.703
  22363125.195          41.279     1641724.396       -2987.889
 17 07 17 11 55 52.000288   0  7G16G18G20G21G26G29G31
  21789226.495          27.669    -1381730.632        2338.733
  23803168.074          28.060    -1463114.266        2527.571
  22987107.821          32.343     -263933.205         283.586
  20964858.395          38.128       39858.746        -225.381
  20602486.362          35.133     -615900.393         943.099
  22722755.328          36.998     1568474.567       -2780.768
  22363696.899          41.347     1644712.607       -2988.626
 17 07 17 11 55 53.000288   0  7G16G18G20G21G26G29G31
  21788780.407          28.881    -1384068.953        2338.192
  23802659.928          25.328    -1465641.639        2527.270
  22987046.065          29.322     -264216.427         282.896
  20964906.662          38.419       40084.280        -226.050
  20602304.085          35.290     -616843.468         942.534
  22723276.068          36.224     1571255.463       -2781.339
  22364263.809          41.421     1647701.228       -2989.003
 17 07 17 11 55 54.000288   0  7G16G18G20G21G26G29G31
  21788261.040          32.594    -1386407.023        2338.150
  23802122.575          24.208    -1468168.817        2526.157
  22986935.016          30.723     -264498.879         281.880
  20964869.964          37.677       40310.367        -226.546
  20602053.335          38.821     -617785.928         942.203
  22723730.127          34.453     1574036.417       -2780.863
  22364764.935          41.520     1650690.164       -2989.314
 17 07 17 11 55 55.000288   0  7G16G18G20G21G26G29G31
  21787809.254          32.751    -1388744.673        2337.671
  23801635.709          25.947    -1470695.904        2527.144
  22986880.453          31.826     -264780.658         281.691
  20964919.427          37.258       40537.010        -226.801
  20601871.660          39.687     -618727.941         941.869
  22724270.054          35.325     1576817.581       -2780.938
  22365332.442          41.609     1653679.545       -2989.519
 17 07 17 11 55 56.000287   0  7G16G18G20G21G26G29G31
  21787285.988          30.789    -1391082.247        2337.496
  23801093.858          25.649    -1473223.039        2528.083
  22986742.723          29.937     -265061.811         280.649
  20964889.622          37.575       40764.185        -227.535
  20601624.208          39.509     -619669.445         941.428
  22724734.906          35.445     1579598.849       -2781.628
  22365832.971          41.942     1656669.269       -2989.773
 17 07 17 11 55 57.000287   0  7G16G18G20G21G26G29G31
  21786847.992          28.746    -1393419.376        2337.128
  23800598.900          23.472    -1475749.970        2527.319
  22986694.155          28.857     -265342.541         280.519
  20964928.597          36.332       40991.868        -228.012
  20601450.927          39.924     -620610.543         940.721
  22725261.044          33.960     1582380.152       -2781.708
  22366398.079          42.709     1659659.368       -2990.261
 17 07 17 11 55 58.000287   0  7G16G18G20G21G26G29G31
  21786402.501          30.289    -1395756.433        2336.732
  23800107.842          20.111    -1478276.903        2522.239
  22986643.493          28.721     -265622.690         279.767
  20964982.557          36.645       41219.930        -228.344
  20601266.853          40.725     -621551.266         940.610
  22725788.978          34.253     1585161.459       -2781.443
  22366969.783          42.489     1662649.660       -2990.513
 17 07 17 11 55 59.000287   0  7G16G18G20G21G26G29G31
  21785881.934          29.899    -1398093.186        2336.831
  23799585.178          19.800    -1480799.422        2522.824
  22986539.638          29.412     -265902.174         279.189
  20964948.255          36.762       41448.544        -228.764
  20601014.602          39.456     -622491.464         939.943
  22726235.542          32.124     1587942.856       -2781.614
  22367466.412          43.335     1665640.346       -2990.786
 17 07 17 11 56 00.000287   0  7G16G18G20G21G26G29G31
  21785446.037          28.735    -1400429.597        2335.817
  23799116.901          21.266    -1483327.883        2524.729
  22986484.176          27.191     -266181.055         278.850
  20964988.730          36.246       41677.674        -229.265
  20600836.225          38.528     -623431.270         939.504
  22726777.267          34.094     1590724.502       -2781.727
  22368030.621          42.319     1668631.343       -2991.001
 17 07 17 11 56 01.000287   0  7G16G18G20G21G26G29G31
  21785000.546          27.844    -1402765.863        2336.309
  23798635.135          24.275    -1485854.350        2525.878
  22986418.821          28.751     -266459.259         277.926
  20965036.396          35.684       41907.430        -230.225
  20600649.757          38.365     -624370.514         938.960
  22727303.705          36.643     1593506.226       -2781.967
  22368602.626          42.312     1671622.813       -2991.644
 17 07 17 11 56 02.000287   0  7G16G18G20G21G26G29G31
  21784492.273          31.102    -1405101.711        2335.224
  23798063.305          24.719    -1488380.698        2526.516
  22986296.382          30.421     -266736.859         277.064
  20965004.492          35.416       42137.680        -230.699
  20600405.598          39.082     -625309.246         938.250
  22727761.961          35.883     1596288.016       -2781.912
  22369102.553          41.746     1674614.642       -2992.029
 17 07 17 11 56 03.000287   0  7G16G18G20G21G26G29G31
  21784050.678          32.048    -1407437.255        2335.342
  23797592.633          25.893    -1490906.930        2526.331
  22986253.210          31.346     -267013.723         276.849
  20965053.357          37.176       42368.530        -231.247
  20600225.725          40.118     -626247.580         937.954
  22728283.901          36.387     1599070.022       -2781.921
  22369669.764          40.892     1677606.833       -2992.393
 17 07 17 11 56 04.000287   0  7G16G18G20G21G26G29G31
  21783523.516          35.902    -1409772.613        2335.281
  23797046.284          25.069    -1493432.971        2525.726
  22986118.180          33.720     -267290.057         275.865
  20965022.654          35.604       42599.816        -231.609
  20599976.772          39.502     -627185.383         937.448
  22728749.652          38.494     1601852.103       -2782.212
  22370167.592          41.325     1680599.324       -2992.741
 17 07 17 11 56 05.000287   0  7G16G18G20G21G26G29G31
  21783085.821          34.937    -1412107.750        2335.158
  23796570.814          24.155    -1495959.109        2525.653
  22986063.316          35.539     -267565.861         275.712
  20965061.629          34.956       42831.598        -232.246
  20599799.591          38.618     -628122.879         937.396
  22729273.987          37.236     1604634.156       -2782.646
  22370734.502          41.677     1683592.141       -2993.060
 17 07 17 11 56 06.000287   0  7G16G18G20G21G26G29G31
  21782642.428          33.670    -1414442.532        2334.468
  23796068.662          20.785    -1498485.218        2528.506
  22986021.048          34.405     -267840.939         274.572
  20965113.190          35.316       43063.993        -232.885
  20599624.216          39.310     -629059.736         936.685
  22729802.223          35.466     1607416.550       -2782.449
  22371306.206          42.768     1686585.433       -2993.637
 17 07 17 11 56 07.000286   0  7G16G18G20G21G26G29G31
  21782123.363          31.561    -1416777.101        2334.590
  23795517.815          22.777    -1501018.013        2526.964
  22985889.909          34.941     -268115.493         274.340
  20965082.189          35.357       43296.795        -232.966
  20599373.461          39.026     -629996.194         936.609
  22730258.380          36.119     1610198.878       -2782.329
  22371803.433          43.001     1689578.920       -2993.277
 17 07 17 11 56 08.000286   0  7G16G18G20G21G26G29G31
  21781696.155          30.393    -1419111.495        2334.108
  23795051.642          25.338    -1503544.105        2526.237
  22985838.047          35.298     -268389.494         274.012
  20965128.354          35.301       43530.113        -233.683
  20599196.586          38.661     -630932.328         935.974
  22730799.507          37.666     1612981.226       -2782.622
  22372373.038          42.040     1692572.751       -2994.033
 17 07 17 11 56 09.000286   0  7G16G18G20G21G26G29G31
  21781244.072          30.554    -1421445.503        2333.307
  23794541.393          24.623    -1506069.608        2525.791
  22985775.689          34.490     -268662.875         273.035
  20965176.320          35.488       43763.882        -233.691
  20599018.506          39.297     -631867.885         935.387
  22731326.242          39.169     1615763.744       -2782.858
  22372943.246          42.549     1695566.953       -2994.323
 17 07 17 11 56 10.000286   0  7G16G18G20G21G26G29G31
  21780719.907          31.516    -1423779.471        2333.629
  23794010.636          23.394    -1508595.347        2527.111
  22985661.045          34.903     -268935.720         272.707
  20965149.517          35.039       43998.116        -234.790
  20598771.952          39.627     -632803.225         935.210
  22731786.300          36.868     1618546.207       -2782.324
  22373443.474          42.081     1698561.385       -2994.534
 17 07 17 11 56 11.000286   0  7G16G18G20G21G26G29G31
  21780286.108          31.911    -1426113.222        2333.527
  23793533.364          22.670    -1511121.271        2519.909
  22985615.474          31.805     -269207.862         271.867
  20965189.386          36.409       44232.821        -234.695
  20598597.175          38.807     -633737.935         934.534
  22732304.039          33.248     1621328.899       -2782.515
  22374012.181          41.309     1701556.206       -2994.791
 17 07 17 11 56 12.000286   0  7G16G18G20G21G26G29G31
  21779768.242          30.485    -1428446.406        2332.983
  23792942.949          20.868    -1513649.504        2520.219
  22985485.239          31.835     -269479.467         270.981
  20965169.174          36.504       44468.274        -235.923
  20598343.126          39.442     -634672.268         933.947
  22732769.789          34.205     1624111.546       -2783.426
  22374513.006          42.468     1704551.374       -2995.433
 17 07 17 11 56 13.000286   0  7G16G18G20G21G26G29G31
  21779326.346          28.424    -1430779.545        2333.179
  23792462.082          19.659    -1516174.196        2521.292
  22985433.377          32.758     -269750.507         270.748
  20965215.042          35.471       44704.014        -236.006
  20598159.353          40.168     -635606.117         933.626
  22733300.424          37.208     1626894.256       -2782.500
  22375083.812          42.989     1707546.892       -2995.821
 17 07 17 11 56 14.000286   0  7G16G18G20G21G26G29G31
  21778874.560          26.318    -1433112.221        2332.083
  23792019.287          20.566    -1518690.723        2523.616
  22985389.908          33.600     -270020.886         270.183
  20965248.621          34.517       44940.334        -236.507
  20597984.873          39.686     -636539.501         933.318
  22733827.757          35.959     1629677.278       -2782.606
  22375652.218          43.661     1710542.722       -2995.993
 17 07 17 11 56 15.000286   0  7G16G18G20G21G26G29G31
  21778345.002          27.884    -1435444.877        2332.377
  23791451.356          21.728    -1521213.246        2522.942
  22985260.572          33.990     -270290.751         269.554
  20965232.008          34.802       45177.106        -237.005
  20597733.520          38.516     -637472.439         932.913
  22734289.315          37.735     1632460.235       -2782.841
  22376152.446          42.979     1713538.865       -2996.226
